City_ID,City,Lat,Lng,Max Temp,Humidity,Cloudiness,Wind Speed,Country,Date
0,puerto natales,-51.7236,-72.4875,6.25,49,75,8.75,CL,1698601245
1,lucapa,-8.4192,20.7447,23.41,72,72,1.35,AO,1698601319
2,puerto ayora,-0.7393,-90.3518,29.98,85,22,4.92,EC,1698601237
3,stanley,54.868,-1.6985,8.77,95,75,3.6,GB,1698601408
4,selfoss,63.9331,-20.9971,0.58,69,18,2.54,IS,1698601267
5,sandnessjoen,66.0217,12.6316,-1.71,86,20,1.54,NO,1698601409
6,acajutla,13.5928,-89.8275,28.45,71,98,2.47,SV,1698601409
7,vila velha,-20.3297,-40.2925,30.97,58,0,8.75,BR,1698601328
8,avarua,-21.2078,-159.775,22.03,73,95,4.12,CK,1698601409
9,isafjordur,66.0755,-23.124,0.02,74,0,2.06,IS,1698601409
10,mejit,10.2753,170.8646,28.21,80,67,9.51,MH,1698601372
11,iqaluit,63.7506,-68.5145,-7.15,62,75,6.17,CA,1698601245
12,port elizabeth,-33.918,25.5701,14.16,78,20,3.09,ZA,1698601410
13,arraial do cabo,-22.9661,-42.0278,31.98,62,0,5.66,BR,1698601410
14,fort bragg,35.139,-79.006,27.85,52,20,4.12,US,1698601410
15,haiku-pauwela,20.9219,-156.3051,25.58,79,20,0.0,US,1698601411
16,tiksi,71.6872,128.8694,-13.5,95,100,2.36,RU,1698601411
17,grytviken,-54.2811,-36.5092,3.37,91,74,2.58,GS,1698601411
18,weno,7.4515,151.8468,27.97,83,100,4.63,FM,1698601411
19,petropavlovsk-kamchatsky,53.0452,158.6483,3.03,59,75,3.0,RU,1698601411
20,bethel,41.3712,-73.414,10.5,87,100,3.09,US,1698601412
21,talnakh,69.4865,88.3972,-17.11,98,93,1.46,RU,1698601412
22,laguna,38.421,-121.4238,19.05,31,0,5.14,US,1698601412
23,georgetown,5.4112,100.3354,25.57,94,20,1.03,MY,1698601412
24,carnarvon,-24.8667,113.6333,19.35,76,0,11.29,AU,1698601413
25,northam,51.0333,-4.2167,11.45,87,97,13.52,GB,1698601413
26,bilibino,68.0546,166.4372,-15.79,73,4,2.8,RU,1698601413
27,adamstown,-25.066,-130.1015,22.27,85,100,7.26,PN,1698601413
28,hawaiian paradise park,19.5933,-154.9731,24.39,76,0,3.09,US,1698601414
29,geraldton,-28.7667,114.6,15.23,82,55,3.6,AU,1698601414
30,princeville,45.7668,-61.2985,9.17,73,75,5.14,CA,1698601414
31,as sulayyil,20.4607,45.5779,29.14,30,100,4.71,SA,1698601414
32,hamilton,39.1834,-84.5333,14.44,95,100,2.06,US,1698601415
33,zhangye,38.9342,100.4517,10.4,26,0,2.55,CN,1698601415
34,port mathurin,-19.6833,63.4167,24.82,78,6,6.29,MU,1698601415
35,crane,31.3974,-102.3501,7.47,87,100,10.0,US,1698601415
36,reggane,26.7158,0.1714,32.66,12,62,3.31,DZ,1698601415
37,edinburgh of the seven seas,-37.0676,-12.3116,11.08,66,20,11.69,SH,1698601416
38,longyearbyen,78.2186,15.6401,-4.09,93,75,1.54,SJ,1698601416
39,malvan,16.0667,73.4667,26.68,68,2,1.11,IN,1698601416
40,port-aux-francais,-49.35,70.2167,1.88,96,100,10.29,TF,1698601416
41,morant bay,17.8815,-76.4093,33.17,75,42,2.68,JM,1698601416
42,constantia,44.1833,28.65,14.38,53,0,2.23,RO,1698601416
43,badger,64.8,-147.5333,-6.47,88,20,0.0,US,1698601417
44,saint-philippe,-21.3585,55.7679,24.77,89,48,4.94,RE,1698601124
45,waitangi,-43.9535,-176.5597,8.23,93,13,1.18,NZ,1698601417
46,cabo san lucas,22.8909,-109.9124,29.23,65,0,4.63,MX,1698601407
47,college,64.8569,-147.8028,-6.42,86,75,0.0,US,1698601417
48,hithadhoo,-0.6,73.0833,27.05,79,100,7.93,MV,1698601417
49,blackmans bay,-43.0167,147.3167,12.63,57,100,0.89,AU,1698601270
50,qala i naw,34.9874,63.1289,21.34,29,5,1.93,AF,1698601418
51,levuka,50.1834,-105.4011,-4.16,85,53,6.0,CA,1698601418
52,lorengau,-2.0226,147.2712,26.62,81,100,2.25,PG,1698601418
53,tazovsky,67.4667,78.7,-15.75,94,26,1.53,RU,1698601418
54,holualoa,19.6228,-155.9522,26.04,73,40,2.24,US,1698601329
55,thompson,55.7435,-97.8558,-4.91,74,75,3.6,CA,1698601418
56,pariaman,-0.619,100.12,25.23,86,100,1.13,ID,1698601419
57,muroto-misakicho,33.2833,134.15,11.97,72,0,3.04,JP,1698601419
58,ushuaia,-54.8,-68.3,1.81,93,75,6.17,AR,1698601301
59,saguenay,48.4168,-71.0657,1.71,64,100,4.12,CA,1698601386
60,puerto deseado,-47.7503,-65.8938,10.34,40,45,12.74,AR,1698601419
61,springfield,37.2153,-93.2982,5.64,94,100,4.47,US,1698601354
62,vilhena,-12.7406,-60.1458,32.12,51,40,4.63,BR,1698601420
63,enewetak,11.3474,162.3373,28.7,77,24,8.58,MH,1698601420
64,bam,29.106,58.357,23.29,33,2,1.81,IR,1698601420
65,figuig (centre),32.1089,-1.2286,24.54,21,87,4.73,MA,1698601420
66,prado,-17.3411,-39.2208,27.59,59,100,6.24,BR,1698601420
67,hadibu,12.65,54.0333,26.62,76,89,5.57,YE,1698601420
68,essaouira,31.5125,-9.77,20.72,73,40,2.57,MA,1698601421
69,vadso,70.0744,29.7487,-3.91,86,75,4.12,NO,1698601240
70,cabinda,-5.55,12.2,28.08,83,40,4.12,AO,1698601421
71,west island,-12.1568,96.8225,25.99,78,100,8.23,CC,1698601421
72,anadyr,64.75,177.4833,-0.72,92,75,6.71,RU,1698601265
73,novodvinsk,64.4165,40.8122,-4.56,81,89,1.41,RU,1698601421
74,kenai,60.5544,-151.2583,4.52,82,100,6.69,US,1698601422
75,lerwick,60.1545,-1.1494,8.0,70,13,11.04,GB,1698601422
76,papatowai,-46.5619,169.4708,4.95,92,68,1.26,NZ,1698601293
77,margaret river,-33.95,115.0667,11.8,67,31,5.35,AU,1698601399
78,afaahiti,-17.75,-149.2833,24.93,80,33,6.37,PF,1698601422
79,ribeira grande,38.5167,-28.7,18.22,59,20,5.14,PT,1698601423
80,olonkinbyen,70.9221,-8.7187,-0.2,75,100,1.03,SJ,1698601423
81,howrah,22.5892,88.3103,25.0,78,20,2.06,IN,1698601423
82,punta arenas,-53.15,-70.9167,8.06,42,20,6.69,CL,1698601423
83,tolanaro,-25.0319,46.9987,25.04,69,0,3.09,MG,1698601423
84,taltal,-25.4,-70.4833,18.15,70,42,3.15,CL,1698601423
85,aksu,41.1231,80.2644,12.46,33,7,0.74,CN,1698601424
86,vilyuchinsk,52.9306,158.4028,3.85,82,94,0.06,RU,1698601424
87,dudinka,69.4058,86.1778,-16.88,99,57,2.12,RU,1698601424
88,tual,-5.6667,132.75,27.6,81,100,4.21,ID,1698601424
89,yellowknife,62.456,-114.3525,-3.66,91,75,2.06,CA,1698601424
90,ancud,-41.8697,-73.8203,8.54,55,80,9.16,CL,1698601424
91,port lincoln,-34.7333,135.8667,9.34,94,95,2.7,AU,1698601292
92,tan-tan,28.438,-11.1032,23.97,64,18,6.17,MA,1698601425
93,dharampur,20.5333,73.1833,23.83,41,60,2.39,IN,1698601425
94,san raimundo,14.7647,-90.5956,18.44,71,85,1.69,GT,1698601425
95,baruun-urt,46.6806,113.2792,-3.47,31,7,2.59,MN,1698601425
96,lebu,-37.6167,-73.65,8.83,76,100,9.29,CL,1698601425
97,kurumkan,54.3,110.3,-5.49,68,59,2.24,RU,1698601426
98,aldan,58.6031,125.3894,-10.57,97,100,0.98,RU,1698601426
99,maulavi bazar,24.4833,91.7833,20.89,86,30,1.42,BD,1698601426
100,usinsk,65.9939,57.5281,-11.63,87,98,2.68,RU,1698601426
101,malango,-2.9627,119.9001,20.22,97,94,0.91,ID,1698601426
102,saint-francois,46.4154,3.9054,12.69,100,100,2.06,FR,1698601426
103,happy valley-goose bay,53.3168,-60.3315,2.17,51,40,14.92,CA,1698601426
104,lompoc,34.6391,-120.4579,23.25,60,0,3.09,US,1698601388
105,belyy yar,53.6039,91.3903,-8.06,79,100,2.0,RU,1698601427
106,guaranesia,-21.2992,-46.8025,26.88,62,92,4.61,BR,1698601427
107,albany,42.6001,-73.9662,7.51,91,100,1.59,US,1698601199
108,amga,60.8953,131.9608,-6.58,95,100,2.02,RU,1698601185
109,bredasdorp,-34.5322,20.0403,13.77,59,1,9.26,ZA,1698601427
110,semnan,35.5729,53.3971,18.79,25,9,1.86,IR,1698601428
111,kayar,14.9192,-17.1211,30.53,73,57,4.82,SN,1698601428
112,rio grande,-32.035,-52.0986,32.06,85,47,3.69,BR,1698601356
113,thunder bay,48.4001,-89.3168,0.99,44,75,5.66,CA,1698601196
114,ferozepore,30.9167,74.6,23.78,33,3,2.6,IN,1698601428
115,candido mendes,-1.4467,-45.7167,30.4,58,77,6.14,BR,1698601428
116,mount pearl,47.5166,-52.7813,9.52,63,75,12.35,CA,1698601428
117,castillos,-34.1667,-53.8333,28.7,48,5,3.44,UY,1698601429
118,flying fish cove,-10.4217,105.6791,25.82,88,100,4.12,CX,1698601429
119,freeport,40.6576,-73.5832,13.89,81,100,6.69,US,1698601243
120,saudarkrokur,65.7461,-19.6394,-0.68,81,17,2.97,IS,1698601429
121,east london,-33.0153,27.9116,14.71,63,97,5.84,ZA,1698601429
122,aasiaat,68.7098,-52.8699,-4.59,70,100,2.49,GL,1698601321
123,invercargill,-46.4,168.35,3.9,95,70,1.34,NZ,1698601152
124,puerto maldonado,-12.6,-69.1833,31.22,62,75,4.12,PE,1698601430
125,nieuw amsterdam,5.8833,-55.0833,28.48,80,77,10.6,SR,1698601430
126,xining,36.6167,101.7667,6.65,53,41,0.45,CN,1698601430
127,barah,13.7,30.3667,30.1,18,93,1.63,SD,1698601430
128,port douglas,-16.4833,145.4667,22.12,77,100,2.78,AU,1698601430
129,colonia,50.9333,6.95,14.98,73,20,5.14,DE,1698601258
130,chibougamau,49.9168,-74.3659,-2.21,64,100,4.63,CA,1698601320
131,jalai nur,49.45,117.7,-5.18,33,8,2.94,CN,1698601431
132,darwin,-12.4611,130.8418,27.99,79,40,2.57,AU,1698601208
133,whitehorse,60.7161,-135.0538,-3.44,92,100,7.2,CA,1698601431
134,klerksdorp,-26.8521,26.6667,12.38,66,6,9.16,ZA,1698601431
135,qaqortoq,60.7167,-46.0333,4.27,63,100,4.74,GL,1698601431
136,novyy chirkey,43.162,47.0559,18.68,65,76,2.18,RU,1698601431
137,kununurra,-15.7667,128.7333,22.99,83,41,0.0,AU,1698601431
138,cill airne,52.05,-9.5167,9.03,100,20,1.03,IE,1698601432
139,hasaki,35.7333,140.8333,12.22,63,17,5.96,JP,1698601432
140,saipan,15.1355,145.701,27.39,94,20,2.06,MP,1698601432
141,udachny,66.4167,112.4,-16.42,84,99,3.23,RU,1698601432
142,vanersborg,58.3807,12.3234,3.97,93,100,6.69,SE,1698601433
143,skara,58.3866,13.4384,3.68,92,100,4.47,SE,1698601433
144,rongelap,11.1635,166.8941,28.65,69,94,9.52,MH,1698601433
145,adilcevaz,38.8039,42.7342,13.59,67,4,0.51,TR,1698601433
146,khunti,23.0833,85.2833,18.06,71,5,2.07,IN,1698601433
147,bom jesus,-9.0744,-44.3586,40.69,12,17,4.09,BR,1698601433
148,ust'-kut,56.7938,105.7672,-8.65,83,92,1.79,RU,1698601434
149,piracuruca,-3.9281,-41.7092,40.52,14,38,3.16,BR,1698601319
150,benjamin constant,-4.3831,-70.0311,31.07,74,75,2.57,BR,1698601434
151,siemiatycze,52.4272,22.8623,11.07,86,89,5.5,PL,1698601434
152,codrington,-38.2667,141.9667,10.56,87,96,6.26,AU,1698601434
153,qulsary,46.9531,54.0198,12.72,69,17,5.94,KZ,1698601434
154,kumagunnam,13.1551,10.6342,32.5,15,6,4.23,NG,1698601435
155,bel ombre,-4.6167,55.4167,27.91,83,40,2.57,SC,1698601390
156,taulaga,-11.0553,-171.0883,28.48,74,61,5.34,AS,1698601435
157,ticleni,44.8833,23.4,14.37,57,0,1.78,RO,1698601435
158,wailua homesteads,22.0669,-159.378,22.29,95,0,3.09,US,1698601435
159,chernyshevskiy,63.0128,112.4714,-10.67,93,100,3.51,RU,1698601435
160,tomatlan,19.9333,-105.25,31.12,62,26,1.86,MX,1698601436
161,qarauyl,48.9451,79.255,6.76,85,100,3.31,KZ,1698601436
162,jamestown,42.097,-79.2353,8.07,97,100,3.6,US,1698601408
163,chonchi,-42.6128,-73.8092,8.56,62,58,5.26,CL,1698601263
164,selty,57.3132,52.1345,-1.63,96,100,3.95,RU,1698601437
165,morogoro,-6.8167,37.6667,24.08,74,60,3.03,TZ,1698601437
166,posto fiscal rolim de moura,-13.0833,-62.2667,35.13,37,82,2.69,BR,1698601437
167,san antonio de pale,-1.4014,5.6325,26.68,81,20,3.56,GQ,1698601437
168,tevriz,57.509,72.4042,-7.48,94,59,2.96,RU,1698601437
169,hilo,19.7297,-155.09,26.45,73,0,3.09,US,1698601205
170,tindouf,27.6711,-8.1474,32.25,14,40,9.26,DZ,1698601438
171,refahiye,39.9008,38.7667,13.23,52,83,0.83,TR,1698601438
172,newborough,52.6389,-0.2233,10.58,90,80,4.63,GB,1698601438
173,magadan,59.5667,150.8,-2.82,75,84,2.17,RU,1698601180
174,rudnyy,52.9594,63.1206,4.13,100,100,5.16,KZ,1698601439
175,new ulm,44.3125,-94.4605,2.38,68,0,3.6,US,1698601439
176,suntar,62.1444,117.6319,-8.26,86,90,2.79,RU,1698601173
177,port saint john's,-31.6229,29.5448,15.33,60,87,4.9,ZA,1698601439
178,alpena,45.0617,-83.4327,6.18,86,100,1.54,US,1698601439
179,talodi,10.6325,30.3797,25.01,75,57,1.47,SD,1698601439
180,prince rupert,54.3161,-130.3201,4.83,87,0,3.09,CA,1698601210
181,vernon,50.2581,-119.2691,3.67,62,9,2.57,CA,1698601440
182,turpan,42.9333,89.1667,14.65,39,87,0.75,CN,1698601440
183,dompu,-8.5356,118.4622,24.79,88,57,0.78,ID,1698601440
184,jaicos,-7.3592,-41.1378,39.1,14,28,4.33,BR,1698601440
185,blackwater,-23.5833,148.8833,15.39,100,62,3.95,AU,1698601440
186,gizo,-8.103,156.8419,27.08,81,94,3.04,SB,1698601441
187,am timan,11.0297,20.2827,27.08,60,56,4.09,TD,1698601441
188,klaksvik,62.2266,-6.589,5.51,72,82,11.68,FO,1698601441
189,port alfred,-33.5906,26.891,14.54,72,77,0.89,ZA,1698601441
190,hobyo,5.3505,48.5268,25.04,91,100,5.56,SO,1698601441
191,quellon,-43.1167,-73.6167,9.09,57,70,5.44,CL,1698601442
192,tambura,5.6,27.4667,23.63,85,89,0.6,SS,1698601442
193,hermanus,-34.4187,19.2345,14.07,61,0,11.94,ZA,1698601442
194,daruvar,45.5906,17.225,17.12,65,70,4.79,HR,1698601443
195,ballina,-28.8667,153.5667,12.1,85,24,2.34,AU,1698601443
196,arkalyk,50.2486,66.9114,11.48,83,100,10.05,KZ,1698601443
197,maceio,-9.6658,-35.7353,28.69,61,40,6.17,BR,1698601443
198,velasco ibarra,-1.05,-79.6167,27.09,72,100,2.32,EC,1698601444
199,sinabang,2.4803,96.3801,24.89,90,100,0.44,ID,1698601444
200,kilinochchi,9.3961,80.3982,26.26,84,99,2.91,LK,1698601444
201,eureka,40.8021,-124.1637,16.34,72,0,0.89,US,1698601444
202,port isabel,26.0734,-97.2086,32.26,64,75,7.72,US,1698601444
203,pamandzi,-12.7967,45.2794,27.88,74,0,3.6,YT,1698601444
204,xinpu,34.5997,119.1594,14.79,75,0,2.87,CN,1698601445
205,keflavik,64.0049,-22.5624,4.24,75,0,3.09,IS,1698601445
206,klyuchi,52.2667,79.1667,-1.13,93,98,2.41,RU,1698601445
207,ust-kamenogorsk,49.9789,82.6103,4.96,93,100,3.0,KZ,1698601387
208,kayangel,8.0823,134.7173,27.95,73,99,2.51,PW,1698601445
209,akrehamn,59.2667,5.1833,8.56,57,40,4.12,NO,1698601446
210,umm kaddadah,13.6017,26.6876,31.6,13,26,3.87,SD,1698601446
211,oriximina,-1.7656,-55.8661,36.42,34,62,4.08,BR,1698601446
212,iquique,-20.2208,-70.1431,23.02,69,69,4.69,CL,1698601193
213,arquitecto tomas romero pereira,-26.4833,-55.25,29.48,69,72,1.6,PY,1698601446
214,hinton,53.4001,-117.5857,1.78,58,100,1.76,CA,1698601447
215,kaa-khem,51.6833,94.7333,-3.66,32,100,0.38,RU,1698601447
216,malpica,43.3228,-8.8105,13.52,76,86,10.58,ES,1698601447
217,desaguadero,-16.5656,-69.0417,19.31,13,55,2.19,PE,1698601447
218,aykhal,66.0,111.5,-22.57,96,98,2.84,RU,1698601447
219,slavgorod,52.9978,78.6449,-1.13,94,94,2.98,RU,1698601448
220,st. john's,47.5649,-52.7093,9.98,63,75,12.35,CA,1698601227
221,mount sterling,38.0565,-83.9433,19.61,95,100,3.6,US,1698601448
222,tofol,5.3248,163.0078,26.97,82,100,4.41,FM,1698601448
223,padangsidempuan,1.3667,99.2667,22.42,100,100,0.21,ID,1698601449
224,coyhaique,-45.5752,-72.0662,6.34,61,75,2.06,CL,1698601449
225,agat village,13.3886,144.6585,28.06,90,0,2.06,GU,1698601449
226,midvagur,62.0511,-7.1939,5.46,65,64,4.63,FO,1698601413
227,dunedin,-45.8742,170.5036,8.22,91,41,1.34,NZ,1698601449
228,buala,-8.145,159.5921,26.73,82,88,2.63,SB,1698601450
229,garachico,28.7781,-17.7646,23.06,65,20,2.57,ES,1698601450
230,glace bay,46.1969,-59.957,8.92,64,75,8.75,CA,1698601450
231,pilar,-9.5972,-35.9567,27.96,45,91,5.36,BR,1698601431
232,val-d'or,48.1002,-77.7828,2.05,64,75,4.12,CA,1698601218
233,santyoku,37.4406,129.1708,12.62,70,0,2.35,KR,1698601450
234,saint-joseph,-21.3667,55.6167,25.21,87,73,1.26,RE,1698601451
235,puyo,-1.4667,-77.9833,22.58,94,100,2.06,EC,1698601451
236,zhicheng,30.2956,111.5047,18.49,74,0,1.83,CN,1698601451
237,masterton,-40.9597,175.6575,8.67,90,100,2.21,NZ,1698601277
238,taro,-8.3862,115.28,23.0,93,21,1.47,ID,1698601451
239,nova xavantina,-14.6667,-52.35,38.97,24,36,3.83,BR,1698601451
240,kapuskasing,49.4169,-82.4331,0.05,74,75,3.6,CA,1698601452
241,kingston,17.997,-76.7936,32.91,61,20,3.13,JM,1698601452
242,hotan,37.0997,79.9269,14.38,21,100,0.88,CN,1698601452
243,prainha,-1.8,-53.48,38.01,29,15,2.7,BR,1698601452
244,saint-pierre,-21.3393,55.4781,25.82,73,20,4.63,RE,1698601452
245,fisterra,42.9049,-9.2629,13.75,65,90,8.73,ES,1698601453
246,ain sefra,32.75,-0.5833,22.53,25,91,5.29,DZ,1698601453
247,lobujya,27.95,86.8167,-7.68,76,81,0.99,NP,1698601453
248,utrik,11.2278,169.8474,28.46,75,95,7.71,MH,1698601453
249,vega de alatorre,20.0333,-96.6333,27.59,70,76,3.73,MX,1698601453
250,chernyshevsk,52.5243,117.0174,-7.87,40,6,2.26,RU,1698601364
251,padang,-0.9492,100.3543,24.81,90,100,1.27,ID,1698601454
252,ambalangoda,6.2355,80.0538,25.29,87,97,1.81,LK,1698601185
253,newman,37.3138,-121.0208,16.24,27,0,3.13,US,1698601454
254,ust-nera,64.5667,143.2,-17.35,98,17,1.6,RU,1698601454
255,mar''ina horka,53.509,28.147,1.12,88,86,3.78,BY,1698601454
256,vorgashor,67.5833,63.95,-16.99,97,20,2.46,RU,1698601455
257,zuni pueblo,35.0725,-108.8506,10.35,34,1,2.93,US,1698601455
258,mossel bay,-34.1831,22.146,13.96,60,3,10.61,ZA,1698601455
259,san juan de miraflores,-12.1629,-76.9635,21.29,66,73,3.81,PE,1698601455
260,tura,25.5198,90.2201,19.37,91,23,1.69,IN,1698601455
261,buka,40.8108,69.1986,20.09,34,97,1.22,UZ,1698601456
262,uray,60.1247,64.7758,-6.18,69,98,2.68,RU,1698601456
263,altai,46.3722,96.2583,1.9,63,79,15.32,MN,1698601456
264,kodiak,57.79,-152.4072,7.73,100,100,7.72,US,1698601401
265,ustyuzhna,58.8394,36.4321,-1.99,84,100,2.34,RU,1698601456
266,nar'yan-mar,67.6713,53.087,-8.83,86,100,5.81,RU,1698601457
267,opuwo,-18.0607,13.84,28.52,11,11,5.75,NA,1698601457
268,tralee,52.2704,-9.7026,9.14,100,20,1.03,IE,1698601457
269,kamwenge,0.1866,30.4539,17.47,95,97,0.75,UG,1698601458
270,ilulissat,69.2167,-51.1,-2.99,68,75,4.63,GL,1698601458
271,nova sintra,14.8667,-24.7167,23.17,67,92,5.6,CV,1698601458
272,addiet canna,11.2667,37.4833,13.77,90,100,1.83,ET,1698601458
273,mpwapwa,-6.35,36.4833,24.35,51,21,2.31,TZ,1698601458
274,ola,59.5833,151.2833,-1.62,69,74,2.61,RU,1698601458
275,touros,-5.1989,-35.4608,28.74,58,36,8.02,BR,1698601459
276,la passe,45.5549,-0.8967,15.55,85,100,3.59,FR,1698601459
277,astorga,-23.2325,-51.6656,24.71,80,96,3.78,BR,1698601174
278,yol,32.1667,76.2,18.72,57,6,2.74,IN,1698601459
279,gadzhiyevo,69.2551,33.3362,-6.92,91,100,1.82,RU,1698601459
280,sao jose da coroa grande,-8.8978,-35.1478,27.84,58,97,4.49,BR,1698601459
281,pandan,14.0453,124.1694,26.99,84,100,6.0,PH,1698601460
282,iskateley,67.6803,53.1512,-8.88,86,100,5.81,RU,1698601460
283,kijang,35.2442,129.2139,10.85,68,11,1.21,KR,1698601402
284,basco,20.4487,121.9702,27.31,70,82,6.89,PH,1698601460
285,narvik,68.4384,17.4272,-1.33,98,71,2.04,NO,1698601460
286,rukungiri,-0.8411,29.9419,16.14,96,100,0.91,UG,1698601461
287,santana,-0.0583,-51.1817,35.1,46,75,6.69,BR,1698601461
288,homer,59.6425,-151.5483,7.94,71,100,4.12,US,1698601461
289,djamaa,33.5339,5.9931,25.09,22,97,1.39,DZ,1698601461
290,fada,9.5667,8.3,25.34,44,46,1.6,NG,1698601462
291,soio,-6.1349,12.3689,26.25,86,62,5.8,AO,1698601462
292,kone,-21.0595,164.8658,18.78,71,46,2.16,NC,1698601462
293,svetlyy,54.675,20.1347,6.03,84,100,7.7,RU,1698601462
294,san rafael del yuma,18.4299,-68.6739,33.11,76,77,3.67,DO,1698601462
295,cheremshan,54.6667,51.5,0.61,98,100,6.35,RU,1698601462
296,sitka,57.0531,-135.33,5.94,75,100,1.54,US,1698601463
297,plastun,44.7561,136.2939,2.86,57,7,1.87,RU,1698601463
298,machiques,10.0644,-72.545,29.26,72,100,1.31,VE,1698601463
299,rovinj,45.08,13.64,20.72,78,52,5.26,HR,1698601463
300,sudislavl',57.8817,41.7083,-1.06,95,100,3.22,RU,1698601463
301,nantucket,41.2835,-70.0995,13.06,82,100,4.12,US,1698601464
302,song cau,13.45,109.2167,25.16,91,88,2.73,VN,1698601464
303,alofi,-19.0595,-169.9187,23.94,88,100,5.14,NU,1698601464
304,binzhou,37.3667,118.0167,18.25,48,12,4.27,CN,1698601464
305,al burayqah,30.4062,19.5739,24.37,70,0,6.27,LY,1698601464
306,mar del plata,-38.0023,-57.5575,22.01,30,0,4.63,AR,1698601184
307,nuku'alofa,-21.1333,-175.2,23.19,94,20,5.66,TO,1698601190
308,quelimane,-17.8786,36.8883,26.03,86,11,4.82,MZ,1698601465
309,chitungwiza,-18.0127,31.0756,24.57,37,39,5.15,ZW,1698601465
310,bakchar,57.0186,82.0711,-7.4,97,45,1.51,RU,1698601465
311,fort mcmurray,56.7268,-111.381,-0.23,64,100,3.6,CA,1698601465
312,calama,-22.4667,-68.9333,20.27,22,0,9.77,CL,1698601466
313,palembang,-2.9167,104.7458,26.05,78,40,0.0,ID,1698601466
314,casper,42.8666,-106.3131,-3.44,59,75,2.24,US,1698601314
315,akureyri,65.6835,-18.0878,-0.04,80,0,0.0,IS,1698601466
316,lusambo,-4.9667,23.45,25.97,72,85,0.3,CD,1698601466
317,huarmey,-10.0681,-78.1522,22.87,74,86,5.89,PE,1698601466
318,polyarnyy,69.1989,33.4478,-6.61,91,100,1.69,RU,1698601467
319,boa vista,2.8197,-60.6733,34.99,43,40,3.09,BR,1698601467
320,madang,-5.2246,145.7966,24.54,91,90,1.3,PG,1698601467
321,saint john,45.2727,-66.0677,8.0,56,100,5.14,CA,1698601199
322,new norfolk,-42.7826,147.0587,13.29,61,100,3.84,AU,1698601467
323,tanjung pinang,0.9167,104.45,26.02,70,17,2.03,ID,1698601467
324,samarinda,-0.5,117.15,23.14,91,44,0.34,ID,1698601468
325,mana,5.6592,-53.7767,30.32,70,81,7.17,GF,1698601431
326,lihue,21.9789,-159.3672,22.63,88,0,3.09,US,1698601375
327,serhetabat,35.2799,62.3438,20.74,28,7,1.1,TM,1698601468
328,prince albert,53.2001,-105.7677,-2.03,86,100,5.14,CA,1698601468
329,bykhaw,53.5193,30.2469,1.19,86,81,2.98,BY,1698601469
330,ivdel',60.6911,60.4206,-3.78,65,100,4.02,RU,1698601469
331,onguday,50.75,86.15,-0.25,95,100,0.93,RU,1698601469
332,ambodifotatra,-16.9833,49.85,25.61,81,27,3.76,MG,1698601470
333,hami,42.8,93.45,12.88,36,100,2.54,CN,1698601470
334,san patricio,28.017,-97.5169,31.06,55,15,5.95,US,1698601278
335,tutoia,-2.7619,-42.2744,30.24,55,27,9.53,BR,1698601470
336,ulsteinvik,62.3432,5.8487,4.62,57,0,6.26,NO,1698601470
337,coahuayana de hidalgo,18.7,-103.6583,32.03,57,11,1.91,MX,1698601470
338,mossendjo,-2.9506,12.7261,23.06,94,76,0.53,CG,1698601471
339,tamiahua,21.2667,-97.45,28.25,66,22,3.83,MX,1698601471
340,varzea da palma,-17.5981,-44.7308,37.06,27,30,3.28,BR,1698601471
341,tsiombe,-25.3,45.4833,24.29,74,1,2.54,MG,1698601471
342,pirallahi,40.4723,50.333,18.08,79,10,10.84,AZ,1698601471
343,ouesso,1.6136,16.0517,25.1,77,100,0.21,CG,1698601472
344,fort st. john,56.2499,-120.8529,-6.06,79,100,1.54,CA,1698601272
345,lagunas,-5.2269,-75.6753,25.47,89,100,1.83,PE,1698601472
346,misratah,32.3754,15.0925,24.47,69,35,5.96,LY,1698601473
347,bardai,11.65,7.2333,27.25,22,10,3.11,NG,1698601473
348,kismayo,-0.3582,42.5454,26.87,79,35,4.75,SO,1698601473
349,kavieng,-2.5744,150.7967,27.12,80,44,6.5,PG,1698601473
350,saldanha,-33.0117,17.9442,24.03,40,0,7.9,ZA,1698601333
351,fale old settlement,-9.3852,-171.2468,28.68,70,90,6.01,TK,1698601341
352,stavern,59.0,10.0333,1.4,87,100,12.22,NO,1698601474
353,shangrao,28.4532,117.9686,17.73,85,2,0.94,CN,1698601474
354,phek,25.6667,94.5,10.18,98,33,0.74,IN,1698601474
355,makhambet,47.6667,51.5833,12.4,62,0,7.5,KZ,1698601474
356,kyaikto,17.3,97.0167,24.42,94,96,1.19,MM,1698601474
357,mongu,-15.2484,23.1274,26.71,42,94,3.24,ZM,1698601475
358,villa regina,-39.1,-67.0667,19.43,15,57,4.92,AR,1698601475
359,tazacorte,28.629,-17.9293,24.54,85,20,2.57,ES,1698601475
360,dire,12.2833,-10.9667,26.54,70,75,2.21,ML,1698601475
361,remire-montjoly,4.9167,-52.2667,34.02,49,0,6.17,GF,1698601475
362,nadapuram,11.7,75.6667,25.07,90,100,1.36,IN,1698601475
363,pimentel,-6.8367,-79.9342,27.16,54,0,7.72,PE,1698601476
364,berasia,23.6333,77.4333,22.25,41,14,1.87,IN,1698601476
365,naze,28.3667,129.4833,17.51,59,0,2.29,JP,1698601476
366,callao,-12.0667,-77.15,22.16,73,0,6.69,PE,1698601476
367,coquimbo,-29.9533,-71.3436,18.85,59,0,6.69,CL,1698601477
368,sisimiut,66.9395,-53.6735,-3.57,65,100,3.32,GL,1698601477
369,makurazaki,31.2667,130.3167,15.34,66,0,2.32,JP,1698601477
370,adre,13.4667,22.2,30.8,29,74,0.36,TD,1698601477
371,bamboo flat,11.7,92.7167,26.05,94,40,0.51,IN,1698601324
372,sechura,-5.5569,-80.8222,25.28,61,100,4.15,PE,1698601477
373,bikenibeu village,1.3673,173.1241,26.98,89,20,1.03,KI,1698601478
374,serenje,-13.2325,30.2352,23.62,38,79,1.91,ZM,1698601478
375,kishtwar,33.3167,75.7667,10.45,44,22,2.35,IN,1698601478
376,kyzylorda,44.8528,65.5092,10.01,81,0,1.0,KZ,1698601478
377,general mosconi,-23.1851,-62.303,39.67,26,3,3.51,AR,1698601478
378,bridgewater,44.3835,-64.5155,11.79,58,100,6.17,CA,1698601479
379,tidjikja,18.5564,-11.4271,33.95,11,0,3.12,MR,1698601479
380,katsuren-haebaru,26.3369,127.8719,22.01,82,0,2.57,JP,1698601479
381,kirensk,57.7853,108.1119,-3.91,51,100,3.58,RU,1698601479
382,port macquarie,-31.4333,152.9167,11.61,99,16,1.04,AU,1698601408
383,fortuna,40.5982,-124.1573,16.19,68,0,3.09,US,1698601465
384,margate,51.3813,1.3862,10.5,90,86,11.24,GB,1698601480
385,axim,4.8699,-2.2405,26.03,85,73,2.57,GH,1698601480
386,portland,45.5234,-122.6762,10.88,49,0,6.26,US,1698601184
387,felipe carrillo puerto,19.5833,-88.05,32.7,40,0,2.31,MX,1698601480
388,tianpeng,30.9866,103.9393,20.35,81,91,0.59,CN,1698601480
389,abepura,-2.6333,140.5833,25.45,83,40,0.0,ID,1698601481
390,gebeit,21.0667,36.3167,26.49,64,5,4.92,SD,1698601481
391,tamanrasset,22.785,5.5228,27.95,14,40,2.57,DZ,1698601481
392,sterling,39.0062,-77.4286,25.12,73,75,2.24,US,1698601481
393,camalu,30.85,-116.0667,21.9,41,0,1.22,MX,1698601481
394,santo antonio do ica,-3.1022,-67.9397,34.06,49,99,0.28,BR,1698601482
395,dwarka,22.2394,68.9678,27.58,68,94,4.14,IN,1698601482
396,nyagan,62.1406,65.3936,-8.1,74,58,2.95,RU,1698601482
397,rawson,-43.3002,-65.1023,12.35,43,94,5.27,AR,1698601482
398,katsuura,35.1333,140.3,12.68,72,29,2.61,JP,1698601482
399,dakhla,23.6848,-15.958,24.01,64,0,8.23,EH,1698601482
400,mount gambier,-37.8333,140.7667,10.77,89,95,4.24,AU,1698601433
401,walvis bay,-22.9575,14.5053,14.08,91,60,1.28,NA,1698601483
402,novotitarovskaya,45.2356,38.9792,17.82,57,34,8.94,RU,1698601483
403,port pirie,-33.1833,138.0167,13.36,59,73,3.29,AU,1698601483
404,bolkhov,53.4433,36.0044,0.73,87,100,3.22,RU,1698601483
405,dennery,13.8996,-60.8879,31.05,86,75,3.6,LC,1698601483
406,tinajo,29.0788,-13.7081,25.49,57,20,5.66,ES,1698601483
407,labytnangi,66.6572,66.4183,-13.19,98,95,1.27,RU,1698601484
408,puerto baquerizo moreno,-0.9,-89.6,27.55,69,40,5.66,EC,1698601484
409,qamdo,31.1667,97.2333,-2.72,37,45,1.1,CN,1698601411
410,cooma,-36.2333,149.1333,11.56,41,95,3.52,AU,1698601484
411,keren,15.7778,38.4581,22.22,64,65,2.46,ER,1698601484
412,halifax,44.6453,-63.5724,9.72,55,75,6.69,CA,1698601388
413,bra,44.703,7.8556,14.74,86,99,0.91,IT,1698601485
414,ulladulla,-35.35,150.4667,15.5,46,69,3.62,AU,1698601485
415,sidi ifni,29.3797,-10.173,27.86,64,73,1.65,MA,1698601299
416,timbuktu,16.7735,-3.0074,33.46,9,0,0.89,ML,1698601485
417,island harbour,50.724,-1.2758,11.67,84,82,3.13,GB,1698601486
418,kasongo-lunda,-6.4667,16.8167,25.42,75,64,1.49,CD,1698601486
419,kutum,14.2,24.6667,26.62,16,61,3.79,SD,1698601486
420,bonanza,14.0289,-84.591,30.44,55,68,1.65,NI,1698601486
421,tayshet,55.9342,98.0044,-6.75,68,0,1.4,RU,1698601486
422,miles city,46.4083,-105.8406,-3.46,74,100,4.63,US,1698601487
423,forster,-32.1667,152.5167,13.77,91,16,3.82,AU,1698601487
424,labrador city,52.9463,-66.9114,-1.05,64,75,7.72,CA,1698601487
425,nanao,37.05,136.9667,12.39,68,60,1.83,JP,1698601429
426,ryotsu-minato,38.0833,138.4333,15.69,81,69,4.6,JP,1698601487
427,luanda,-8.8368,13.2343,27.0,78,75,7.72,AO,1698601444
428,oodweyne,9.4092,45.064,23.94,62,87,3.67,SO,1698601488
429,atafu village,-8.5421,-172.5159,28.88,70,86,5.57,TK,1698601312
430,dubove,48.1721,23.8895,10.02,92,62,1.62,UA,1698601488
431,vikulovo,56.8167,70.6107,-5.68,88,100,4.43,RU,1698601488
432,angaur state,6.906,134.13,27.82,75,100,1.97,PW,1698601488
433,grand falls-windsor,48.9332,-55.6649,6.95,55,6,3.13,CA,1698601488
434,rumonge,-3.9736,29.4386,23.2,83,94,2.44,BI,1698601489
435,al bawiti,28.3492,28.8659,24.86,37,4,4.0,EG,1698601489
436,al qitena,14.8648,32.3668,33.6,23,100,1.25,SD,1698601489
437,ejura,7.3856,-1.3562,28.64,64,42,1.07,GH,1698601489
438,quatre cocos,-20.2078,57.7625,25.06,74,12,4.7,MU,1698601489
439,gunjur,13.2019,-16.7339,33.04,58,40,1.54,GM,1698601490
440,lushoto,-4.7833,38.2833,17.02,82,65,1.91,TZ,1698601490
441,benguela,-12.5763,13.4055,24.65,81,13,2.61,AO,1698601490
442,vila nova da barquinha,39.4756,-8.4095,18.12,86,100,0.42,PT,1698601490
443,kimbe,-5.5502,150.1429,23.73,92,80,1.53,PG,1698601490
444,yangjiang,21.85,111.9667,21.32,95,100,2.22,CN,1698601490
445,sasovo,54.3537,41.9199,1.18,100,100,2.68,RU,1698601491
446,kibre mengist,5.8833,38.9833,15.47,97,96,0.3,ET,1698601491
447,harburg,53.4667,9.9833,13.24,87,100,3.6,DE,1698601491
448,idri,27.5,13.2667,26.04,18,1,2.84,LY,1698601491
449,ardakan,32.31,54.0175,22.62,24,1,0.17,IR,1698601491
450,choele choel,-39.2667,-65.6833,20.38,12,74,19.06,AR,1698601491
451,karratha,-20.7377,116.8463,26.9,71,100,5.27,AU,1698601492
452,kuhmo,64.1333,29.5167,-6.88,87,40,1.57,FI,1698601492
453,alaghsas,17.0187,8.0168,34.94,7,0,5.66,NE,1698601492
454,burutu,5.3509,5.5076,27.7,82,100,2.04,NG,1698601492
455,praia da vitoria,38.7333,-27.0667,17.64,82,40,4.46,PT,1698601435
456,lazarevskoye,43.9061,39.3331,18.55,70,100,2.03,RU,1698601492
457,inarajan village,13.2736,144.7484,28.08,93,90,3.87,GU,1698601493
458,mahibadhoo,3.7833,72.9667,27.88,77,100,5.98,MV,1698601493
459,plettenberg bay,-34.0527,23.3716,13.76,60,9,6.87,ZA,1698601493
460,luganville,-15.5333,167.1667,22.43,92,94,1.01,VU,1698601493
461,kamaishi,39.2667,141.8833,9.93,94,85,1.9,JP,1698601493
462,severo-yeniseyskiy,60.3725,93.0408,-13.01,97,97,1.34,RU,1698601493
463,mukharram al fawqani,34.8151,37.0861,26.21,28,85,3.1,SY,1698601494
464,mansa,29.9833,75.3833,23.43,30,0,2.53,IN,1698601494
465,nuuk,64.1835,-51.7216,-1.66,93,100,4.63,GL,1698601494
466,necochea,-38.5473,-58.7368,17.01,36,65,10.54,AR,1698601494
467,tucupita,9.0622,-62.051,32.78,54,83,2.68,VE,1698601277
468,winkler,49.1817,-97.941,-4.0,73,16,3.6,CA,1698601425
469,itaituba,-4.2761,-55.9836,39.09,42,20,1.72,BR,1698601351
470,porangatu,-13.4408,-49.1486,41.1,16,28,3.39,BR,1698601495
471,cramlington,55.0865,-1.586,9.58,97,75,3.6,GB,1698601495
472,kerikeri,-35.2268,173.9474,16.62,95,99,1.34,NZ,1698601495
473,jayapura,-2.5333,140.7,25.66,92,68,2.43,ID,1698601495
474,khandyga,62.6667,135.6,-7.01,97,100,1.17,RU,1698601495
475,port augusta,-32.5,137.7667,13.13,60,68,1.91,AU,1698601496
476,santa elena de uairen,4.6167,-61.1333,28.85,45,80,3.56,VE,1698601496
477,broome,42.2506,-75.833,9.45,96,100,3.09,US,1698601496
478,san mariano,7.5,126.0,22.1,95,10,1.1,PH,1698601496
479,taoudenni,22.6783,-3.9836,34.46,9,2,1.91,ML,1698601496
480,pekin,39.9075,116.3972,11.94,52,62,1.54,CN,1698601331
481,swakopmund,-22.6833,14.5333,14.73,87,22,0.88,NA,1698601496
482,kazan,55.7887,49.1221,0.41,97,100,6.08,RU,1698601497
483,leshan,29.5623,103.7639,19.01,77,71,1.42,CN,1698601497
484,juegang,32.3174,121.1855,17.17,81,0,3.39,CN,1698601497
485,awjilah,29.1081,21.2869,24.68,34,0,3.5,LY,1698601497
486,siilinjarvi,63.0833,27.6667,-1.99,71,75,3.6,FI,1698601497
487,kargasok,59.0556,80.8572,-11.13,94,46,1.34,RU,1698601498
488,sompeta,18.9333,84.6,22.86,65,94,1.5,IN,1698601498
489,lalam,9.7166,76.7,24.19,94,100,0.98,IN,1698601498
490,freetown,8.484,-13.2299,29.84,70,20,3.09,SL,1698601498
491,yinchuan,38.4681,106.2731,13.44,28,3,1.15,CN,1698601498
492,ciudad nueva,-17.9837,-70.2356,24.54,41,0,5.14,PE,1698601498
493,pangai,-19.8,-174.35,25.06,88,75,5.14,TO,1698601498
494,pacific grove,36.6177,-121.9166,20.21,34,0,7.15,US,1698601499
495,ketchikan,55.3422,-131.6461,3.99,100,100,2.57,US,1698601499
496,rebola,3.7167,8.8333,25.45,83,86,3.9,GQ,1698601499
497,greymouth,-42.4667,171.2,10.08,70,94,5.49,NZ,1698601415
498,lagunillas,10.1301,-71.2595,29.59,70,85,2.6,VE,1698601499
499,al wafrah,28.6392,47.9306,23.33,36,78,2.81,KW,1698601500
500,carbonear,47.7332,-53.2148,10.23,62,53,7.74,CA,1698601500
501,susuman,62.7833,148.1667,-17.79,99,90,0.45,RU,1698601500
502,timimoun,29.2639,0.231,33.21,13,0,2.57,DZ,1698601500
503,mao,39.8885,4.2658,19.31,88,0,3.6,ES,1698601500
504,nema,57.5067,50.5011,-1.97,96,100,4.85,RU,1698601500
505,mhamid,29.82,-5.72,28.34,21,75,6.02,MA,1698601501
506,yanchep,-31.55,115.6833,14.97,65,35,9.49,AU,1698601501
507,guayaramerin,-10.8368,-65.3614,34.03,55,40,4.63,BO,1698601501
508,uturoa,-16.7333,-151.4333,26.43,77,5,7.21,PF,1698601501
509,betim,-19.9678,-44.1983,34.21,47,100,2.15,BR,1698601432
510,shache,38.4167,77.2406,15.28,27,5,2.73,CN,1698601502
511,shevchenkove,49.6959,37.1735,9.38,80,53,2.34,UA,1698601502
512,yuzhno-kurilsk,44.0306,145.8556,7.99,76,6,2.48,RU,1698601316
513,ca mau,9.1769,105.15,24.67,96,100,1.86,VN,1698601503
514,ploneour-lanvern,47.9,-4.2833,13.18,71,75,5.66,FR,1698601503
515,gulabpura,25.9,74.6667,24.21,31,3,1.63,IN,1698601504
516,lasem,-6.6922,111.4527,28.23,72,94,3.99,ID,1698601504
517,saint johnsbury,44.4192,-72.0151,5.25,91,100,0.0,US,1698601504
518,nabire,-3.3667,135.4833,23.99,94,94,1.5,ID,1698601505
519,seririt,-8.1928,114.9388,24.48,85,11,2.21,ID,1698601505
520,monrovia,6.3005,-10.7969,29.87,78,11,3.72,LR,1698601505
521,dong ha,16.8163,107.1003,24.98,90,100,1.25,VN,1698601505
522,bor,56.3567,44.0669,0.0,98,100,3.2,RU,1698601506
523,revda,56.801,59.9303,-2.89,95,100,5.8,RU,1698601506
524,mugia,43.1041,-9.2179,13.28,65,83,9.69,ES,1698601506
525,miguel ahumada,30.6167,-106.5167,22.78,19,0,1.12,MX,1698601507
526,mersa matruh,31.3525,27.2453,23.76,72,94,3.47,EG,1698601507
527,muisne,0.6,-80.0333,25.19,85,100,5.64,EC,1698601507
528,dongkan,33.9997,119.8308,14.86,79,1,3.18,CN,1698601507
529,kirakira,-10.4544,161.9205,25.3,88,61,2.92,SB,1698601507
530,villa ojo de agua,-29.5,-63.6938,35.81,24,0,3.5,AR,1698601508
531,sotik post,-0.7813,35.3416,15.56,85,95,0.54,KE,1698601508
532,polyarnyye zori,67.3661,32.4981,-9.45,88,100,2.29,RU,1698601508
533,tadine,-21.55,167.8833,20.51,62,96,5.49,NC,1698601508
534,nova vicosa,-17.8919,-39.3719,29.69,47,81,4.8,BR,1698601406
535,novofedorivka,46.1713,32.3178,16.03,59,0,1.04,UA,1698601509
536,eyl,7.9803,49.8164,26.96,76,87,6.35,SO,1698601509
537,scarborough,54.2797,-0.4044,10.92,92,75,0.89,GB,1698601509
538,sakakah,29.9697,40.2064,18.76,64,100,2.6,SA,1698601510
539,monett,36.929,-93.9277,4.35,100,100,5.14,US,1698601510
540,arcachon,44.5875,-1.0519,13.18,100,100,4.12,FR,1698601510
541,queenstown,-31.8976,26.8753,5.5,80,5,9.02,ZA,1698601510
542,cole harbour,44.6724,-63.4751,9.43,55,75,6.69,CA,1698601510
543,inari,68.906,27.0288,-5.89,97,79,0.99,FI,1698601511
544,ust'-kulom,61.6864,53.6902,-5.08,91,100,4.05,RU,1698601511
545,gornji vakuf,43.9381,17.5883,10.69,93,1,3.12,BA,1698601511
546,port blair,11.6667,92.75,26.02,94,40,0.51,IN,1698601512
547,de aar,-30.6497,24.0123,10.45,31,0,12.88,ZA,1698601512
548,cape town,-33.9258,18.4232,17.28,45,20,9.77,ZA,1698601512
549,luau,-10.7073,22.2247,22.76,66,71,0.54,AO,1698601513
550,namibe,-15.1961,12.1522,20.7,81,47,3.52,AO,1698601513
551,sindi,20.8,78.8667,21.49,54,1,1.62,IN,1698601513
552,francisco sa,-16.4758,-43.4883,36.08,23,51,0.25,BR,1698601513
553,honolulu,21.3069,-157.8583,26.61,86,20,1.54,US,1698601220
554,zheleznodorozhnyy,55.7503,38.0042,0.75,97,100,4.92,RU,1698601514
555,rokytne,51.2796,27.214,8.84,88,58,3.29,UA,1698601514
556,puerto francisco de orellana,-0.4667,-76.9667,28.03,83,100,1.54,EC,1698601514
557,neiafu,-18.65,-173.9833,24.38,94,100,3.6,TO,1698601515
558,saue,59.3203,24.5525,0.66,86,100,3.09,EE,1698601515
559,sarpol-e zahab,34.4611,45.8626,21.6,36,50,1.29,IR,1698601515
560,aripuana,-9.1667,-60.6333,39.64,21,81,1.96,BR,1698601465
561,syktyvkar,61.6764,50.8099,-3.15,92,40,3.13,RU,1698601516
562,gaiman,-43.2897,-65.4929,14.71,31,68,7.99,AR,1698601516
563,turaif,31.6725,38.6637,20.14,52,75,5.14,SA,1698601516
564,cromer,52.9312,1.2989,10.04,80,90,8.9,GB,1698601516
565,moussoro,13.6408,16.4901,33.86,13,38,4.99,TD,1698601516
566,kuta,-8.7233,115.1723,25.97,94,20,1.54,ID,1698601517
567,cidreira,-30.1811,-50.2056,24.21,74,17,4.94,BR,1698601517
568,kuvshinovo,57.0295,34.1725,-3.75,97,97,1.08,RU,1698601517
569,saint-louis,16.3333,-15.0,39.8,18,0,3.21,SN,1698601517
570,puerto aysen,-45.4,-72.7,5.44,89,99,1.47,CL,1698601518
