City_ID,City,Lat,Lng,Max Temp,Humidity,Cloudiness,Wind Speed,Country,Date
0,adamstown,-25.066,-130.1015,22.89,81,100,6.95,PN,1698535607
1,iqaluit,63.7506,-68.5145,-14.15,71,0,5.66,CA,1698535630
2,invercargill,-46.4,168.35,13.34,64,71,2.68,NZ,1698535613
3,moranbah,-22.0016,148.0466,24.29,44,14,7.3,AU,1698535772
4,harnai,30.1005,67.9374,20.06,37,0,1.63,PK,1698535773
5,susuman,62.7833,148.1667,-17.23,99,92,0.45,RU,1698535684
6,waitangi,-43.9535,-176.5597,12.68,77,27,3.58,NZ,1698535610
7,albany,42.6001,-73.9662,14.82,61,37,1.79,US,1698535460
8,tura,25.5198,90.2201,18.59,88,0,1.71,IN,1698535639
9,blythe,33.6103,-114.5964,28.25,9,0,1.54,US,1698535774
10,port-aux-francais,-49.35,70.2167,4.61,97,100,9.78,TF,1698535609
11,petropavlovsk-kamchatsky,53.0452,158.6483,3.03,59,0,4.0,RU,1698535658
12,laramie,41.3114,-105.5911,-3.79,79,100,5.14,US,1698535649
13,zeya,53.75,127.2667,-1.4,72,100,2.44,RU,1698535774
14,port elizabeth,-33.918,25.5701,12.16,69,0,2.57,ZA,1698535624
15,al jawf,29.5,38.75,18.61,84,100,5.86,SA,1698535699
16,ust-nera,64.5667,143.2,-17.51,98,98,1.04,RU,1698535705
17,yellowknife,62.456,-114.3525,0.23,82,75,5.66,CA,1698535400
18,west island,-12.1568,96.8225,25.99,73,100,9.26,CC,1698535641
19,pizarro,4.9533,-77.366,23.88,92,100,4.24,CO,1698535687
20,mirny,62.5353,113.9611,-8.36,86,66,4.08,RU,1698535776
21,stanley,54.868,-1.6985,10.16,93,75,4.63,GB,1698535506
22,remire-montjoly,4.9167,-52.2667,28.02,83,0,3.09,GF,1698535690
23,puerto ayora,-0.7393,-90.3518,26.98,90,72,4.02,EC,1698535622
24,bilibino,68.0546,166.4372,-20.89,96,25,1.08,RU,1698535612
25,inhambane,-23.865,35.3833,21.43,82,21,2.22,MZ,1698535777
26,ouadda,8.0777,22.4007,20.39,93,95,1.85,CF,1698535777
27,grytviken,-54.2811,-36.5092,2.32,94,93,4.71,GS,1698535610
28,lihue,21.9789,-159.3672,28.58,66,0,5.14,US,1698535643
29,thompson,55.7435,-97.8558,-4.91,86,75,2.06,CA,1698535629
30,arraial do cabo,-22.9661,-42.0278,24.92,88,75,6.17,BR,1698535664
31,lusambo,-4.9667,23.45,21.28,98,88,0.64,CD,1698535779
32,moyynkum,44.2914,72.9469,15.49,55,100,2.75,KZ,1698535779
33,kingston,17.997,-76.7936,30.53,73,40,3.09,JM,1698535371
34,atafu village,-8.5421,-172.5159,28.57,73,24,4.12,TK,1698535620
35,shinjo,38.7586,140.3008,13.49,92,99,0.69,JP,1698535779
36,dwarka,22.2394,68.9678,26.64,73,2,4.38,IN,1698535780
37,olonkinbyen,70.9221,-8.7187,-0.53,71,99,2.6,SJ,1698535365
38,veenendaal,52.0167,5.55,12.77,95,100,8.35,NL,1698535780
39,saipan,15.1355,145.701,29.39,89,40,3.6,MP,1698535628
40,zaozersk,69.4005,32.4476,-8.76,95,80,1.02,RU,1698535715
41,san julian,21.0167,-102.1667,25.22,31,63,1.7,MX,1698535781
42,saldanha,-33.0117,17.9442,12.03,65,0,8.79,ZA,1698535674
43,papatowai,-46.5619,169.4708,12.58,56,56,1.85,NZ,1698535375
44,rongelap,11.1635,166.8941,28.45,77,22,6.88,MH,1698535782
45,bukama,-9.2,25.85,21.64,91,99,0.98,CD,1698535782
46,margaret river,-33.95,115.0667,15.27,83,100,4.34,AU,1698535518
47,springbok,-29.6643,17.8865,14.07,30,0,10.61,ZA,1698535782
48,klyuchi,52.2667,79.1667,-1.1,51,100,4.81,RU,1698535614
49,dudinka,69.4058,86.1778,-14.1,92,72,5.81,RU,1698535663
50,vadso,70.0744,29.7487,-1.91,80,100,2.57,NO,1698535691
51,okhotsk,59.3833,143.3,-4.11,83,99,5.26,RU,1698535783
52,bobo-dioulasso,11.1771,-4.2979,25.25,83,0,0.51,BF,1698535784
53,alofi,-19.0595,-169.9187,27.94,65,36,8.23,NU,1698535634
54,ola,59.5833,151.2833,-1.04,67,95,2.74,RU,1698535679
55,zhuangyuan,37.2975,120.8256,13.16,59,85,1.95,CN,1698535784
56,tolga,34.7222,5.3785,23.45,40,100,2.55,DZ,1698535784
57,crane,31.3974,-102.3501,25.59,52,18,9.72,US,1698535785
58,longyearbyen,78.2186,15.6401,-3.09,86,75,3.09,SJ,1698535616
59,college,64.8569,-147.8028,-1.72,83,75,0.45,US,1698535634
60,guilin,25.2819,110.2864,19.06,78,91,1.64,CN,1698535785
61,uturoa,-16.7333,-151.4333,26.39,76,98,5.58,PF,1698535650
62,mount isa,-20.7333,139.5,29.87,14,19,5.66,AU,1698535697
63,bethel,41.3712,-73.414,24.05,53,100,2.57,US,1698535342
64,aasiaat,68.7098,-52.8699,-10.59,94,80,3.55,GL,1698535630
65,puerto natales,-51.7236,-72.4875,3.22,87,100,2.67,CL,1698535360
66,sinabang,2.4803,96.3801,25.53,86,69,0.24,ID,1698535675
67,gadzhiyevo,69.2551,33.3362,-6.57,94,94,1.71,RU,1698535680
68,senj,44.9894,14.9058,17.86,80,38,4.88,HR,1698535786
69,hermanus,-34.4187,19.2345,13.79,53,29,9.09,ZA,1698535609
70,gorontalo,0.5412,123.0595,25.7,66,99,0.78,ID,1698535787
71,zadar,44.1197,15.2422,14.34,94,20,2.06,HR,1698535787
72,las palmas,28.4204,-14.0131,20.44,73,75,1.03,ES,1698535787
73,punta arenas,-53.15,-70.9167,5.06,65,75,4.12,CL,1698535360
74,lorengau,-2.0226,147.2712,28.01,82,97,4.6,PG,1698535628
75,dunedin,-45.8742,170.5036,12.11,71,86,2.24,NZ,1698535670
76,hawaiian paradise park,19.5933,-154.9731,28.73,72,40,3.09,US,1698535615
77,tiksi,71.6872,128.8694,-10.29,86,100,5.64,RU,1698535613
78,marksville,31.128,-92.0662,29.03,44,22,3.4,US,1698535512
79,edinburgh of the seven seas,-37.0676,-12.3116,12.93,87,65,11.86,SH,1698535365
80,ko samui,9.5357,99.9357,27.95,83,20,1.03,TH,1698535789
81,santiago de cao,-7.9589,-79.2392,19.07,88,75,4.63,PE,1698535789
82,avarua,-21.2078,-159.775,25.03,61,75,4.63,CK,1698535641
83,ciudad lazaro cardenas,17.9583,-102.2,28.51,78,93,3.29,MX,1698535677
84,udachny,66.4167,112.4,-20.12,100,57,3.22,RU,1698535631
85,geraldton,-28.7667,114.6,16.23,67,1,7.72,AU,1698535612
86,nova sintra,14.8667,-24.7167,23.52,76,37,7.65,CV,1698535724
87,mukalla,14.5425,49.1242,25.92,73,4,2.13,YE,1698535516
88,waslala,13.2333,-85.3833,23.85,93,51,0.89,NI,1698535790
89,tofol,5.3248,163.0078,30.88,70,75,3.09,FM,1698535692
90,luderitz,-26.6481,15.1594,16.36,60,0,9.19,NA,1698535615
91,fortuna,40.5982,-124.1573,16.63,69,0,5.14,US,1698535720
92,meadow lakes,61.6247,-149.6011,6.72,64,20,0.0,US,1698535790
93,whitehorse,60.7161,-135.0538,-4.57,100,100,3.6,CA,1698535611
94,magadan,59.5667,150.8,-1.71,74,97,2.92,RU,1698535791
95,chitungwiza,-18.0127,31.0756,20.25,46,0,4.45,ZW,1698535791
96,utrik,11.2278,169.8474,28.39,75,80,8.15,MH,1698535402
97,kirakira,-10.4544,161.9205,28.31,78,62,2.93,SB,1698535642
98,kapuskasing,49.4169,-82.4331,-1.95,80,75,1.54,CA,1698535741
99,nchelenge,-9.3451,28.734,22.34,79,24,1.11,ZM,1698535792
100,vorgashor,67.5833,63.95,-16.9,100,98,1.13,RU,1698535379
101,ciudad guayana,8.3533,-62.6528,29.7,51,99,1.65,VE,1698535792
102,blackmans bay,-43.0167,147.3167,14.85,59,97,0.89,AU,1698535624
103,la'ie,21.6477,-157.9253,30.98,59,20,3.27,US,1698535792
104,montepuez,-13.1256,38.9997,21.93,86,46,3.45,MZ,1698535792
105,la ronge,55.1001,-105.2842,-4.86,80,75,3.09,CA,1698535693
106,tadine,-21.55,167.8833,22.87,69,14,7.83,NC,1698535718
107,shumikha,55.2261,63.2961,-3.69,95,99,3.99,RU,1698535793
108,khandyga,62.6667,135.6,-14.23,91,81,1.83,RU,1698535793
109,iskateley,67.6803,53.1512,-12.21,90,100,3.58,RU,1698535624
110,lluta,-16.0147,-72.0142,9.26,85,98,3.26,PE,1698535793
111,sao jose da coroa grande,-8.8978,-35.1478,25.67,71,98,5.46,BR,1698535674
112,hilo,19.7297,-155.09,28.85,71,40,3.09,US,1698535482
113,san patricio,28.017,-97.5169,29.74,67,38,6.37,US,1698535686
114,kasama,-10.2129,31.1808,20.13,64,78,0.59,ZM,1698535794
115,juneau,58.3019,-134.4197,4.0,90,100,0.0,US,1698535794
116,abhar,36.1468,49.218,13.25,33,17,2.65,IR,1698535794
117,micheweni,-4.9667,39.8333,25.69,87,82,3.02,TZ,1698535794
118,veraval,20.9,70.3667,26.43,62,100,3.38,IN,1698535559
119,lata,40.1629,-8.3327,17.73,93,99,4.68,PT,1698535674
120,ushuaia,-54.8,-68.3,5.81,61,75,6.17,AR,1698535633
121,poronaysk,49.2167,143.1167,2.39,60,3,0.98,RU,1698535795
122,norfolk,42.1668,-71.2495,23.06,67,0,2.57,US,1698535795
123,novo horizonte,-21.4681,-49.2208,24.19,86,93,0.89,BR,1698535503
124,cuito,-12.3833,16.9333,15.93,89,100,1.84,AO,1698535795
125,tan-tan,28.438,-11.1032,19.96,76,97,2.17,MA,1698535796
126,maslyanino,54.3436,84.2111,-6.71,92,11,1.49,RU,1698535796
127,wajir,1.7471,40.0573,25.49,76,72,8.29,KE,1698535796
128,lichinga,-13.3128,35.2406,20.05,60,0,4.12,MZ,1698535796
129,palora,-1.7,-77.9333,22.06,93,100,0.16,EC,1698535796
130,columbia falls,48.3725,-114.1815,-0.88,67,75,0.0,US,1698535796
131,al hasaheisa,14.7526,33.2984,27.77,56,94,3.69,SD,1698535796
132,sitka,57.0531,-135.33,8.94,61,100,2.06,US,1698535677
133,tolanaro,-25.0319,46.9987,24.04,94,20,9.77,MG,1698535615
134,port mathurin,-19.6833,63.4167,24.21,79,12,3.83,MU,1698535609
135,pumiao,22.75,108.4833,21.22,94,100,0.52,CN,1698535797
136,talnakh,69.4865,88.3972,-14.33,96,45,0.98,RU,1698535663
137,bodaybo,57.8506,114.1933,-9.6,86,27,1.79,RU,1698535644
138,afaahiti,-17.75,-149.2833,27.93,76,89,3.27,PF,1698535687
139,cockburn town,21.4612,-71.1419,28.0,77,34,9.06,TC,1698535650
140,sausset-les-pins,43.3314,5.1043,18.94,77,20,6.17,FR,1698535798
141,xifeng,42.7372,124.7222,6.39,47,15,1.87,CN,1698535798
142,wailua homesteads,22.0669,-159.378,28.24,67,0,5.14,US,1698535376
143,dongsheng,39.8161,109.9776,8.09,38,8,4.3,CN,1698535798
144,demre,36.2537,29.9777,19.69,75,100,1.43,TR,1698535799
145,san antonio de pale,-1.4014,5.6325,26.04,80,4,2.9,GQ,1698535681
146,porto murtinho,-21.6989,-57.8825,26.35,74,97,0.72,BR,1698535799
147,bredasdorp,-34.5322,20.0403,12.92,51,89,5.93,ZA,1698535612
148,kailua-kona,19.6406,-155.9956,30.33,74,40,4.63,US,1698535423
149,rio grande,-32.035,-52.0986,21.64,95,91,3.09,BR,1698535613
150,flying fish cove,-10.4217,105.6791,24.82,88,40,3.6,CX,1698535653
151,bullhead city,35.1478,-114.5683,27.68,18,0,6.17,US,1698535598
152,alice springs,-23.7,133.8833,24.75,10,59,3.09,AU,1698535623
153,saint-pierre,-21.3393,55.4781,22.82,73,0,1.03,RE,1698535651
154,qaqortoq,60.7167,-46.0333,0.31,83,58,0.76,GL,1698535366
155,enewetak,11.3474,162.3373,28.7,74,77,5.22,MH,1698535683
156,tazacorte,28.629,-17.9293,21.75,96,100,0.51,ES,1698535720
157,chu,43.5983,73.7614,15.59,53,100,4.17,KZ,1698535801
158,khovd,48.0056,91.6419,-2.59,53,56,0.89,MN,1698535635
159,bulawayo,-20.15,28.5833,21.78,29,22,2.79,ZW,1698535801
160,saint john,45.2727,-66.0677,15.0,94,75,0.0,CA,1698535531
161,villeneuve-sur-yonne,48.0825,3.2969,15.65,76,100,8.1,FR,1698535802
162,ekibastuz,51.6667,75.3667,-0.74,95,100,5.39,KZ,1698535803
163,jamestown,42.097,-79.2353,10.77,79,75,1.79,US,1698535532
164,yarmouth,41.7057,-70.2286,21.26,85,0,3.6,US,1698535804
165,zhaqsy,51.9083,67.3133,-0.03,99,100,2.81,KZ,1698535810
166,minas de marcona,-15.2119,-75.1103,14.94,84,73,5.05,PE,1698535812
167,yemetsk,63.4721,41.7941,-3.67,94,100,2.69,RU,1698535812
168,grand rapids,42.9634,-85.6681,9.55,66,75,1.54,US,1698535640
169,ilulissat,69.2167,-51.1,-3.99,74,86,8.75,GL,1698535639
170,labytnangi,66.6572,66.4183,-12.83,91,80,1.5,RU,1698535813
171,sovetskaya gavan',48.9723,140.2878,0.61,56,9,1.47,RU,1698535666
172,howard springs,-12.497,131.047,30.49,68,28,1.42,AU,1698535813
173,guerrero negro,27.9769,-114.0611,20.06,69,0,8.12,MX,1698535813
174,saint-mandrier-sur-mer,43.078,5.929,18.62,86,75,1.79,FR,1698535814
175,sarina,-21.4333,149.2167,23.67,1,88,5.16,AU,1698535815
176,dampit,-8.2116,112.7493,22.64,76,75,1.42,ID,1698535709
177,linhares,-19.3911,-40.0722,24.39,83,93,3.69,BR,1698535704
178,keflavik,64.0049,-22.5624,4.24,65,0,2.06,IS,1698535621
179,sao francisco,-15.9486,-44.8644,25.56,68,89,1.25,BR,1698535815
180,kudahuvadhoo,2.6708,72.8944,27.42,79,100,6.01,MV,1698535816
181,mangai,-4.05,19.5333,24.1,81,99,0.33,CD,1698535816
182,coquimbo,-29.9533,-71.3436,15.85,77,0,6.69,CL,1698535647
183,happy valley-goose bay,53.3168,-60.3315,3.17,93,100,2.57,CA,1698535637
184,bikenibeu village,1.3673,173.1241,30.98,74,20,3.09,KI,1698535817
185,show low,34.2542,-110.0298,16.16,29,0,9.77,US,1698535761
186,sault ste. marie,46.5168,-84.3333,4.16,67,75,2.06,CA,1698535537
187,pampierstad,-27.7832,24.6877,12.36,51,0,7.52,ZA,1698535818
188,ashburton,-37.8626,145.0794,20.21,59,62,0.45,AU,1698535818
189,buenos aires,-34.6132,-58.3772,24.94,75,0,2.06,AR,1698535818
190,ghat,24.9647,10.1728,25.7,21,20,1.11,LY,1698535818
191,the pas,53.8251,-101.2541,-2.99,68,75,6.69,CA,1698535819
192,novoishimskiy,53.1981,66.7694,-1.48,96,98,3.73,KZ,1698535819
193,taulaga,-11.0553,-171.0883,28.8,70,73,4.29,AS,1698535819
194,lebu,-37.6167,-73.65,9.47,79,95,7.95,CL,1698535438
195,dapa,9.7594,126.0531,27.91,74,45,1.58,PH,1698535819
196,alaghsas,17.0187,8.0168,26.28,12,73,4.25,NE,1698535820
197,languyan,5.2618,120.0807,28.52,69,64,0.67,PH,1698535820
198,metlili chaamba,32.2667,3.6333,23.52,19,40,0.0,DZ,1698535820
199,constantia,44.1833,28.65,14.38,53,60,2.31,RO,1698535683
200,nuuk,64.1835,-51.7216,-3.66,80,75,6.71,GL,1698535677
201,las heras,-46.5419,-68.9359,7.48,43,58,12.23,AR,1698535821
202,broome,42.2506,-75.833,13.12,75,0,1.54,US,1698535669
203,hithadhoo,-0.6,73.0833,27.16,81,32,7.88,MV,1698535625
204,tutoia,-2.7619,-42.2744,26.83,75,41,9.23,BR,1698535822
205,shatrovo,56.5167,64.6333,-5.78,89,100,4.35,RU,1698535822
206,waingapu,-9.6567,120.2641,27.3,68,21,2.13,ID,1698535643
207,pagar alam,-4.0167,103.2667,22.57,52,37,0.77,ID,1698535822
208,malango,-2.9627,119.9001,25.6,50,37,0.82,ID,1698535823
209,forster,-32.1667,152.5167,20.72,57,28,3.7,AU,1698535823
210,hamilton,39.1834,-84.5333,13.28,90,100,4.12,US,1698535408
211,ancud,-41.8697,-73.8203,7.58,79,80,11.24,CL,1698535615
212,suva,-18.1416,178.4415,28.71,65,75,6.17,FJ,1698535534
213,fort frances,48.5999,-93.4003,-3.24,77,90,0.45,CA,1698535823
214,port douglas,-16.4833,145.4667,24.58,71,94,5.9,AU,1698535705
215,barra de santo antonio,-9.4047,-35.5072,25.6,77,100,4.97,BR,1698535824
216,conde,-7.2597,-34.9075,25.7,78,40,3.6,BR,1698535824
217,vila velha,-20.3297,-40.2925,25.97,83,40,4.12,BR,1698535686
218,georgetown,5.4112,100.3354,26.64,94,20,1.54,MY,1698535487
219,polyarnyy,69.1989,33.4478,-6.34,93,96,1.59,RU,1698535695
220,kodiak,57.79,-152.4072,7.73,93,100,8.23,US,1698535463
221,tebessa,35.4042,8.1242,21.6,26,40,2.57,DZ,1698535825
222,nemuro,43.3236,145.575,12.46,76,97,3.8,JP,1698535648
223,ar rass,25.8694,43.4973,21.84,43,95,2.99,SA,1698535825
224,kapit,2.0167,112.9333,24.64,95,80,0.37,MY,1698535826
225,borkum,53.5809,6.6915,10.97,92,100,10.78,DE,1698535826
226,port lincoln,-34.7333,135.8667,13.64,59,16,3.66,AU,1698535682
227,ribeira grande,38.5167,-28.7,17.65,66,100,1.79,PT,1698535663
228,pingliang,35.5392,106.6861,11.22,62,0,0.66,CN,1698535826
229,haiku-pauwela,20.9219,-156.3051,29.01,58,40,10.29,US,1698535654
230,tazovsky,67.4667,78.7,-14.33,91,51,4.28,RU,1698535661
231,anadyr,64.75,177.4833,2.28,100,100,5.0,RU,1698535680
232,severo-yeniseyskiy,60.3725,93.0408,-9.12,81,100,7.15,RU,1698535827
233,bonthe,7.5264,-12.505,25.58,87,9,1.31,SL,1698535678
234,dul'durga,50.6761,113.5931,-4.66,47,81,6.34,RU,1698535827
235,le vauclin,14.5452,-60.8388,25.03,94,100,2.57,MQ,1698535828
236,cannonvale,-20.2833,148.7,24.66,56,67,7.73,AU,1698535828
237,mbulu,-3.85,35.5333,16.03,88,51,4.17,TZ,1698535828
238,ts'alenjikha,42.6044,42.0682,18.63,65,100,1.21,GE,1698535829
239,mawlamyinegyunn,16.3833,95.2667,24.42,91,84,1.51,MM,1698535829
240,coxim,-18.5067,-54.76,28.34,59,66,2.59,BR,1698535830
241,ustka,54.5805,16.8619,5.36,77,100,5.34,PL,1698535830
242,jumla,29.2747,82.1838,7.01,63,100,1.68,NP,1698535830
243,kalmunai,7.4167,81.8167,25.26,86,74,1.27,LK,1698535709
244,ormara,25.2088,64.6357,26.71,69,0,4.01,PK,1698535831
245,puerto aysen,-45.4,-72.7,4.38,99,100,2.11,CL,1698535645
246,saint-francois,46.4154,3.9054,15.69,60,0,7.2,FR,1698535831
247,santa elena de uairen,4.6167,-61.1333,24.88,60,98,1.2,VE,1698535408
248,savanna-la-mar,18.219,-78.1332,27.97,76,18,2.78,JM,1698535832
249,la passe,45.5549,-0.8967,15.13,87,100,8.8,FR,1698535666
250,zalingei,12.9096,23.4741,26.4,50,86,1.32,SD,1698535720
251,shortandy,51.7006,70.9994,0.06,99,100,3.97,KZ,1698535832
252,mejit,10.2753,170.8646,28.45,75,45,8.37,MH,1698535673
253,nantucket,41.2835,-70.0995,19.45,93,0,5.14,US,1698535693
254,isafjordur,66.0755,-23.124,2.18,86,99,2.53,IS,1698535612
255,tame,6.461,-71.73,23.17,95,100,1.99,CO,1698535833
256,boa vista,2.8197,-60.6733,31.99,51,20,2.06,BR,1698535833
257,erenhot,43.6475,111.9767,8.64,35,38,4.6,CN,1698535834
258,tbeng meanchey,13.8167,104.9667,24.4,97,98,1.3,KH,1698535834
259,codroipo,45.96,12.9792,14.34,89,0,2.06,IT,1698535834
260,doctor alberto oviedo mota,32.2275,-115.1697,30.0,12,0,1.7,MX,1698535834
261,tibanesti,46.9167,27.3333,12.31,62,3,1.29,RO,1698535834
262,chinde,26.8418,88.0763,13.37,73,26,2.01,NP,1698535613
263,saint-louis,16.3333,-15.0,29.8,30,17,4.28,SN,1698535669
264,choix,26.7092,-108.3219,27.1,49,0,1.4,MX,1698535835
265,itamaraca,-7.7478,-34.8256,27.03,72,79,4.07,BR,1698535598
266,nasir,15.5894,32.5634,28.81,49,73,5.7,SD,1698535835
267,villa gesell,-37.2639,-56.973,16.67,81,5,6.24,AR,1698535836
268,zhanaozen,43.3,52.8,17.29,52,89,2.88,KZ,1698535836
269,borogontsy,62.6683,131.1683,-5.26,86,100,4.16,RU,1698535837
270,amos,48.5669,-78.1162,-2.05,76,97,3.32,CA,1698535587
271,mil'kovo,55.6078,37.7956,0.33,98,100,4.89,RU,1698535403
272,muntok,-2.0667,105.1833,26.33,83,49,3.23,ID,1698535837
273,antofagasta,-23.65,-70.4,16.6,82,14,3.08,CL,1698535733
274,retreat,38.8245,-85.8533,13.53,65,100,2.65,US,1698535838
275,ballycastle,55.2044,-6.243,11.97,88,100,9.89,GB,1698535838
276,badger,64.8,-147.5333,-1.77,90,20,0.0,US,1698535838
277,landeck,47.1301,10.5636,9.44,86,70,3.55,AT,1698535838
278,dakhla,23.6848,-15.958,20.89,89,6,8.21,EH,1698535839
279,lastoursville,-0.8143,12.7287,24.48,82,96,0.85,GA,1698535839
280,gaspe,48.8334,-64.4819,10.12,66,40,9.26,CA,1698535839
281,turpan,42.9333,89.1667,12.87,45,6,1.33,CN,1698535839
282,aykhal,66.0,111.5,-18.51,100,94,4.07,RU,1698535637
283,nagqu,31.5,92.0,-5.71,63,100,0.83,CN,1698535839
284,pisco,-13.7,-76.2167,21.03,78,20,7.2,PE,1698535710
285,roswell,34.0232,-84.3616,23.88,69,20,2.06,US,1698535690
286,santander,43.4647,-3.8044,16.28,90,75,3.6,ES,1698535740
287,hammerfest,70.6634,23.6821,-0.75,80,40,2.06,NO,1698535840
288,man,7.4125,-7.5538,22.01,88,30,0.4,CI,1698535840
289,buarcos,40.166,-8.8768,18.7,84,99,10.57,PT,1698535840
290,morteros,-30.7116,-61.9986,26.68,61,0,4.57,AR,1698535841
291,mersing,2.4312,103.8405,23.95,94,40,0.0,MY,1698535841
292,daru,-9.0763,143.2092,24.87,94,100,6.18,PG,1698535724
293,malmberget,67.1753,20.6549,-15.69,85,100,1.54,SE,1698535841
294,porto novo,6.4965,2.6036,27.9,83,3,1.68,BJ,1698535842
295,quatre cocos,-20.2078,57.7625,22.83,80,5,2.45,MU,1698535842
296,akjoujt,19.6969,-14.4164,29.32,17,0,2.34,MR,1698535842
297,shingu,33.7333,135.9833,14.17,65,0,3.33,JP,1698535744
298,acarau,-2.8856,-40.12,26.4,77,23,9.03,BR,1698535842
299,mount gambier,-37.8333,140.7667,14.82,45,54,3.2,AU,1698535842
300,onega,63.9061,38.1404,-3.57,93,100,2.43,RU,1698535843
301,chonchi,-42.6128,-73.8092,6.56,92,89,5.02,CL,1698535843
302,ishim,56.1128,69.4902,-5.54,88,100,2.68,RU,1698535843
303,ararat,39.8317,44.7049,12.19,48,70,1.0,AM,1698535843
304,thames,-37.1333,175.5333,15.12,60,97,8.17,NZ,1698535843
305,rwamagana,-1.9487,30.4347,16.69,83,62,0.8,RW,1698535843
306,fort bragg,35.139,-79.006,24.9,67,0,0.0,US,1698535844
307,moses lake,47.1301,-119.2781,7.38,33,0,1.54,US,1698535830
308,el espinal,16.3333,-94.0667,25.16,76,7,1.6,MX,1698535844
309,coari,-4.085,-63.1414,30.26,38,98,1.72,BR,1698535822
310,harper,4.375,-7.7169,25.39,89,9,2.82,LR,1698535844
311,wotho,10.1657,166.0102,28.6,76,9,6.34,MH,1698535845
312,narasannapeta,18.4167,84.05,22.1,82,76,2.29,IN,1698535845
313,st. john's,47.5649,-52.7093,12.76,92,100,6.69,CA,1698535813
314,al ghayzah,16.2079,52.176,25.17,75,32,1.47,YE,1698535845
315,zhezqazghan,47.7833,67.7667,8.03,76,74,4.29,KZ,1698535845
316,junin,-34.5838,-60.9433,20.5,74,0,3.68,AR,1698535584
317,buala,-8.145,159.5921,29.25,71,94,2.01,SB,1698535846
318,mar del plata,-38.0023,-57.5575,26.01,54,0,8.94,AR,1698535846
319,ajuchitlan del progreso,18.1519,-100.4835,26.16,87,100,0.34,MX,1698535846
320,korocha,50.8107,37.1953,9.4,85,100,9.44,RU,1698535846
321,santiago,-33.4569,-70.6483,13.25,70,100,4.63,CL,1698535846
322,palmer,42.1584,-72.3287,21.23,52,0,4.63,US,1698535627
323,touros,-5.1989,-35.4608,25.5,76,63,6.42,BR,1698535847
324,yanchep,-31.55,115.6833,16.45,67,27,2.04,AU,1698535847
325,xining,36.6167,101.7667,4.72,48,2,0.74,CN,1698535847
326,puerto deseado,-47.7503,-65.8938,14.01,22,83,11.64,AR,1698535630
327,luchegorsk,46.4764,134.2569,3.46,45,7,1.59,RU,1698535847
328,tromso,69.6496,18.957,-3.99,80,73,0.51,NO,1698535848
329,taroa,8.7058,171.2275,28.8,73,93,8.61,MH,1698535848
330,sorsk,54.0033,90.2467,-9.61,84,7,0.75,RU,1698535848
331,pimenta bueno,-11.6725,-61.1936,23.75,90,80,1.63,BR,1698535848
332,hadibu,12.65,54.0333,25.56,82,94,3.59,YE,1698535848
333,nizhneangarsk,55.7833,109.55,-6.11,54,26,3.58,RU,1698535848
334,tvoroyri,61.5556,-6.8111,8.35,79,78,11.22,FO,1698535849
335,lamar,33.6668,-95.5836,17.02,98,100,2.06,US,1698535849
336,weno,7.4515,151.8468,28.97,84,100,2.06,FM,1698535662
337,neyshabur,36.2133,58.7958,17.57,36,86,0.86,IR,1698535849
338,elin pelin,42.6667,23.6,13.79,81,75,1.03,BG,1698535849
339,hassi messaoud,31.6804,6.0729,23.92,20,0,2.06,DZ,1698535849
340,nar'yan-mar,67.6713,53.087,-12.16,90,100,3.58,RU,1698535849
341,kruisfontein,-34.0033,24.7314,9.26,58,67,2.02,ZA,1698535850
342,antigonish,45.6169,-61.9986,19.9,86,4,2.24,CA,1698535742
343,lompoc,34.6391,-120.4579,22.66,68,0,12.52,US,1698535850
344,tchibanga,-2.85,11.0333,22.61,97,11,0.97,GA,1698535850
345,tanjungtiram,4.0613,98.3699,24.46,92,99,0.74,ID,1698535850
346,tangalle,6.024,80.7911,24.86,88,100,1.73,LK,1698535851
347,nova xavantina,-14.6667,-52.35,29.63,49,73,1.19,BR,1698535851
348,carnarvon,-24.8667,113.6333,20.66,57,1,10.99,AU,1698535851
349,ulsteinvik,62.3432,5.8487,3.2,78,0,4.02,NO,1698535851
350,ambam,2.3833,11.2833,20.7,95,77,0.7,CM,1698535851
351,san antonio,29.4241,-98.4936,30.5,61,75,6.17,US,1698535567
352,abaza,52.655,90.0928,-6.77,70,20,1.04,RU,1698535852
353,fisterra,42.9049,-9.2629,15.01,77,100,12.66,ES,1698535617
354,as sulayyil,20.4607,45.5779,25.14,50,60,3.23,SA,1698535852
355,sao vicente,-23.9631,-46.3919,30.15,78,100,2.24,BR,1698535628
356,hami,42.8,93.45,8.31,53,2,2.71,CN,1698535852
357,ringkobing,56.0901,8.244,7.79,91,100,10.66,DK,1698535852
358,garoowe,8.4054,48.4845,23.06,78,100,4.92,SO,1698535852
359,yaring,6.8662,101.3689,25.64,86,100,1.58,TH,1698535853
360,ribeira brava,32.65,-17.0667,21.35,62,71,3.43,PT,1698535853
361,tsiombe,-25.3,45.4833,23.13,75,0,2.19,MG,1698535853
362,orchard homes,46.8633,-114.0484,1.27,59,75,2.57,US,1698535853
363,nikolayevsk-on-amure,53.1406,140.73,0.87,70,40,2.8,RU,1698535854
364,tomatlan,19.9333,-105.25,26.81,82,86,2.74,MX,1698535854
365,mankono,8.0586,-6.1897,23.47,77,3,1.16,CI,1698535854
366,novodvinsk,64.4165,40.8122,-4.56,81,100,2.93,RU,1698535854
367,placido de castro,-10.3353,-67.1856,24.81,86,99,1.05,BR,1698535855
368,bondo,3.8146,23.6866,20.04,97,44,1.31,CD,1698535855
369,praia,14.9215,-23.5087,26.3,73,40,1.54,CV,1698535856
370,novi vinodolski,45.1281,14.7889,17.91,88,20,3.6,HR,1698535856
371,oguz,41.0708,47.4583,15.91,36,99,2.57,AZ,1698535856
372,yaren,-0.5472,166.916,28.41,70,78,2.35,NR,1698535856
373,kristiansund,63.1115,7.732,-0.97,74,7,1.03,NO,1698535856
374,vilyuchinsk,52.9306,158.4028,3.85,65,100,1.45,RU,1698535856
375,isla del bosque,22.7333,-105.85,26.77,75,10,3.89,MX,1698535857
376,tejen,37.3834,60.5054,20.18,34,36,0.89,TM,1698535857
377,brookings,44.3114,-96.7984,-2.71,86,100,4.63,US,1698535857
378,ketchikan,55.3422,-131.6461,8.26,71,0,3.09,US,1698535857
379,ambon,-3.6954,128.1814,27.08,83,20,1.54,ID,1698535636
380,outjo,-20.1167,16.15,18.86,21,9,3.33,NA,1698535858
381,pamandzi,-12.7967,45.2794,26.88,78,75,4.12,YT,1698535858
382,warren,39.4334,-84.1666,12.82,86,100,3.6,US,1698535858
383,mugia,43.1041,-9.2179,15.09,79,86,13.54,ES,1698535858
384,argo,37.6333,22.7333,19.32,73,98,1.99,GR,1698535859
385,castillos,-34.1667,-53.8333,16.01,98,18,2.31,UY,1698535859
386,pacific grove,36.6177,-121.9166,21.42,60,0,3.6,US,1698535859
387,cabo san lucas,22.8909,-109.9124,27.61,61,0,8.75,MX,1698535859
388,mount darwin,-16.7725,31.5838,24.2,44,1,1.6,ZW,1698535859
389,nelson bay,-32.7167,152.15,22.83,54,14,1.34,AU,1698535860
390,okha,53.5739,142.9478,1.99,86,98,5.9,RU,1698535860
391,kananga,-5.8958,22.4178,21.04,91,94,0.72,CD,1698535860
392,leh,34.1667,77.5833,1.0,35,1,1.14,IN,1698535860
393,bamboo flat,11.7,92.7167,25.05,100,40,0.51,IN,1698535860
394,bayganin,48.6947,55.8742,13.14,93,100,7.61,KZ,1698535860
395,nieves,15.3274,120.9485,26.73,77,5,1.95,PH,1698535861
396,mgandu,-5.95,34.1333,19.62,66,87,3.02,TZ,1698535861
397,laguna,38.421,-121.4238,21.17,23,0,7.2,US,1698535861
398,ballymun,53.3981,-6.2669,11.88,92,75,6.71,IE,1698535861
399,katsuren-haebaru,26.3369,127.8719,23.01,72,0,3.09,JP,1698535861
400,canutama,-6.5339,-64.3831,30.96,45,100,0.37,BR,1698535861
401,ceeldheer,3.8488,47.1806,26.58,79,69,1.98,SO,1698535801
402,hasaki,35.7333,140.8333,15.22,61,45,8.6,JP,1698535862
403,sobrance,48.7445,22.1814,9.7,94,29,2.0,SK,1698535862
404,tostado,-29.232,-61.7692,27.21,57,21,5.19,AR,1698535862
405,patong,7.8961,98.2966,30.01,71,100,3.32,TH,1698535863
406,simcoe,42.8334,-80.2997,8.08,58,44,4.31,CA,1698535683
407,harsum,52.2104,9.9649,12.28,90,78,6.13,DE,1698535863
408,newman,37.3138,-121.0208,19.46,23,0,6.26,US,1698535863
409,santarem,-2.4431,-54.7083,32.07,66,0,3.6,BR,1698535862
410,itoman,26.1247,127.6694,23.01,65,20,4.12,JP,1698535864
411,champerico,14.3,-91.9167,25.3,85,72,5.27,GT,1698535864
412,durban,-29.8579,31.0292,15.51,82,100,8.48,ZA,1698535839
413,fort st. john,56.2499,-120.8529,0.94,55,20,3.09,CA,1698535785
414,balabac,7.9868,117.0645,28.72,75,34,3.85,PH,1698535864
415,adamovka,51.5223,59.9396,0.48,98,100,4.84,RU,1698535864
416,menaka,15.9182,2.4022,29.59,18,72,3.64,ML,1698535864
417,nogliki,51.8333,143.1667,-0.92,79,51,3.13,RU,1698535865
418,carrizal,10.3499,-66.9863,19.67,95,100,0.26,VE,1698535865
419,rize,40.9044,40.8949,9.27,57,80,2.2,TR,1698535865
420,flagstaff,35.1981,-111.6513,15.29,47,75,5.14,US,1698535764
421,shanhaiguan,39.9988,119.7564,15.11,71,1,0.87,CN,1698535865
422,lucapa,-8.4192,20.7447,18.72,87,6,0.76,AO,1698535865
423,karratha,-20.7377,116.8463,32.28,34,42,2.38,AU,1698535866
424,naifaru,5.4444,73.3657,27.82,78,94,2.84,MV,1698535866
425,lakatoro,-16.0999,167.4164,27.39,65,56,1.66,VU,1698535866
426,changli,39.7042,119.1506,14.91,76,1,0.72,CN,1698535866
427,caconda,-13.7333,15.0667,16.64,80,100,1.17,AO,1698535867
428,north bondi,-33.8824,151.2769,25.11,48,0,4.12,AU,1698535867
429,suzemka,52.3178,34.0689,4.88,91,100,5.79,RU,1698535867
430,barkot,30.8167,78.2,12.96,46,66,1.82,IN,1698535867
431,east london,-33.0153,27.9116,13.7,60,98,7.97,ZA,1698535820
432,shimoda,34.6667,138.95,18.39,69,33,4.92,JP,1698535867
433,hovd,48.0056,91.6419,-2.55,53,63,0.95,MN,1698535868
434,moramanga,-18.9333,48.2,18.14,97,100,0.69,MG,1698535868
435,palikir - national government center,6.9248,158.1611,29.41,74,100,4.12,FM,1698535614
436,cincinnati,39.162,-84.4569,13.41,87,100,1.34,US,1698535613
437,kupino,54.3663,77.2981,-3.76,65,96,4.03,RU,1698535868
438,codrington,-38.2667,141.9667,15.65,41,53,3.67,AU,1698535869
439,silver city,32.7701,-108.2803,19.82,30,0,6.26,US,1698535799
440,crescent city,41.756,-124.2018,18.58,73,0,5.14,US,1698535869
441,orsa,54.5153,30.4053,0.52,90,100,4.95,BY,1698535869
442,bodo,67.28,14.405,-0.98,93,20,5.14,NO,1698535869
443,colares,38.7992,-9.4469,20.18,88,86,9.83,PT,1698535869
444,coaraci,-14.6408,-39.5511,20.23,97,8,0.64,BR,1698535870
445,marabba,12.35,32.1833,24.25,77,75,4.49,SD,1698535870
446,runaway bay,18.4596,-77.3357,26.56,76,24,2.39,JM,1698535870
447,stanthorpe,-28.6667,151.95,21.28,32,4,0.71,AU,1698535870
448,thunder bay,48.4001,-89.3168,0.99,60,100,4.12,CA,1698535871
449,papao,-17.75,-149.55,28.82,75,83,4.46,PF,1698535871
450,mpika,-11.8343,31.4529,19.45,55,60,1.09,ZM,1698535871
451,yuzhno-kurilsk,44.0306,145.8556,11.32,87,88,2.51,RU,1698535871
452,colonia,50.9333,6.95,13.86,85,0,5.66,DE,1698535599
453,machali,-34.1833,-70.6667,12.6,58,100,2.57,CL,1698535872
454,nouadhibou,20.931,-17.0347,20.99,78,0,5.66,MR,1698535872
455,tecumseh,42.0039,-83.9449,11.05,70,0,2.57,US,1698535872
456,miri,4.4148,114.0089,26.08,94,40,0.0,MY,1698535744
457,sinop,41.7711,34.8709,15.82,66,4,2.24,TR,1698535620
458,laela,-8.5667,32.05,20.36,52,59,0.06,TZ,1698535873
459,saint-philippe,-21.3585,55.7679,22.77,88,32,3.83,RE,1698535873
460,kone,-21.0595,164.8658,24.24,56,89,4.59,NC,1698535873
461,muromtsevo,56.3724,75.2418,-7.9,94,33,2.19,RU,1698535873
462,maksatikha,57.797,35.8825,-1.19,98,100,1.73,RU,1698535873
463,japaratuba,-10.5933,-36.9403,26.6,84,77,2.98,BR,1698535873
464,isla mujeres,21.2311,-86.731,28.03,72,13,6.82,MX,1698535874
465,camacupa,-12.0167,17.4833,16.63,86,100,1.01,AO,1698535874
466,port alfred,-33.5906,26.891,12.88,68,77,0.89,ZA,1698535874
467,marat,25.0701,45.4615,21.19,35,49,3.15,SA,1698535874
468,klein reken,51.7833,7.0333,12.46,95,100,7.69,DE,1698535875
469,sungai penuh,-2.0833,101.3833,19.68,82,26,1.33,ID,1698535875
470,el granada,37.5027,-122.4694,21.97,43,0,7.2,US,1698535875
471,jhansi,25.4333,78.5833,21.35,35,100,1.4,IN,1698535875
472,leava,-14.3,-178.1667,27.17,81,55,6.07,WF,1698535876
473,aitape,-3.1374,142.3475,27.01,82,100,1.44,PG,1698535698
474,puerto penasco,31.3167,-113.5333,25.72,57,0,3.08,MX,1698535876
475,melekeok village,7.4957,134.6367,29.31,79,75,2.06,PW,1698535876
476,bahau,2.8079,102.4049,23.88,94,50,0.44,MY,1698535876
477,saudarkrokur,65.7461,-19.6394,-0.9,83,88,3.33,IS,1698535876
478,golfito,8.639,-83.166,24.4,94,75,1.73,CR,1698535877
479,aquin,18.2833,-73.4,26.71,74,19,1.39,HT,1698535877
480,choyr,46.3611,108.3611,0.78,67,31,3.72,MN,1698535877
481,yinchuan,38.4681,106.2731,12.69,26,3,0.63,CN,1698535853
482,ponta delgada,37.7333,-25.6667,17.88,72,20,3.09,PT,1698535877
483,country club estates,31.2127,-81.4643,24.01,87,0,2.57,US,1698535878
484,waris aliganj,25.0167,85.6333,19.76,69,6,2.25,IN,1698535878
485,whitecourt,54.1502,-115.6855,1.58,60,75,6.17,CA,1698535821
486,saynshand,44.8824,110.1163,4.42,54,16,7.68,MN,1698535655
487,dubai,25.2582,55.3047,27.96,65,0,2.57,AE,1698535878
488,lockwood,45.8191,-108.4149,-2.55,67,20,4.63,US,1698535879
489,fismes,49.3077,3.6861,15.13,87,100,10.8,FR,1698535879
490,klaksvik,62.2266,-6.589,7.51,76,97,11.44,FO,1698535879
491,port sudan,19.6175,37.2164,28.77,70,3,1.34,SD,1698535879
492,goz beida,13.95,20.55,28.62,20,13,3.97,TD,1698535879
493,san buenaventura,27.0833,-101.5333,31.15,54,20,0.0,MX,1698535879
494,chernomorskoye,45.5039,32.6997,16.43,80,78,2.6,UA,1698535880
495,tabou,4.423,-7.3528,25.41,89,2,2.56,CI,1698535880
496,juan l. lacaze,-34.4333,-57.4167,22.88,74,0,5.76,UY,1698535880
497,zomba,-15.386,35.3188,22.38,53,0,1.53,MW,1698535880
498,fale old settlement,-9.3852,-171.2468,29.08,71,36,4.8,TK,1698535880
499,callao,-12.0667,-77.15,23.18,73,20,5.66,PE,1698535881
500,barpeta,26.3167,91.0,19.81,87,1,2.17,IN,1698535881
501,torghay,49.6339,63.4981,4.58,90,99,2.19,KZ,1698535881
502,shenkursk,62.1091,42.896,-3.78,92,100,2.82,RU,1698535881
503,crossett,33.1282,-91.9612,28.99,76,88,1.3,US,1698535881
504,petauke,-14.2426,31.3253,23.76,46,23,2.12,ZM,1698535882
505,caibarien,22.5206,-79.4669,25.62,70,3,8.43,CU,1698535882
506,viedma,-40.8135,-62.9967,22.02,21,100,9.66,AR,1698535830
507,naze,28.3667,129.4833,21.51,54,8,3.9,JP,1698535882
508,aroeiras,-7.5453,-35.7075,21.61,81,17,3.41,BR,1698535882
509,shenjiamen,29.9576,122.298,20.72,58,51,3.95,CN,1698535882
510,peace river,56.2501,-117.286,4.17,56,20,2.57,CA,1698535812
511,nicoya,10.1483,-85.452,24.27,92,100,1.13,CR,1698535883
512,upata,8.0086,-62.3989,25.99,59,84,1.12,VE,1698535883
513,rio preto da eva,-2.6994,-59.6997,31.57,33,96,0.85,BR,1698535883
514,aswan,24.0934,32.907,28.61,47,19,3.6,EG,1698535721
515,greymouth,-42.4667,171.2,12.65,64,6,1.74,NZ,1698535630
516,padang,-0.9492,100.3543,25.03,84,30,1.78,ID,1698535884
517,yeraliyev,43.2,51.65,16.56,72,75,3.63,KZ,1698535884
518,siocon,7.7061,122.1353,27.96,78,42,1.08,PH,1698535884
519,alindao,5.0267,21.2088,21.75,94,34,1.0,CF,1698535884
520,sarangani,5.4033,125.4636,27.78,71,99,1.83,PH,1698535884
521,surab,28.4914,66.2585,14.31,44,1,1.32,PK,1698535885
522,santa maria del oro,25.9333,-105.3667,25.53,39,30,2.41,MX,1698535885
523,la gi,10.6667,107.7833,26.42,85,98,2.87,VN,1698535885
524,burang,30.25,81.1667,0.96,58,34,1.05,CN,1698535885
525,nishinoomote,30.7333,131.0,19.31,68,40,3.09,JP,1698535885
526,princeville,45.7668,-61.2985,18.36,87,40,3.6,CA,1698535702
527,darwin,-12.4611,130.8418,32.16,66,20,3.09,AU,1698535870
528,khanty-mansiysk,61.0042,69.0019,-7.94,79,40,0.0,RU,1698535886
529,chibougamau,49.9168,-74.3659,-4.21,80,100,8.23,CA,1698535612
530,mayenne,48.3333,-0.6667,12.69,88,69,9.55,FR,1698535887
531,wanning,18.8003,110.3967,26.12,86,80,3.23,CN,1698535887
532,gateway,26.5776,-81.7504,26.99,68,0,5.66,US,1698535887
533,tralee,52.2704,-9.7026,8.67,91,100,1.59,IE,1698535887
534,granadero baigorria,-32.8568,-60.7175,26.1,70,0,2.57,AR,1698535888
535,cidreira,-30.1811,-50.2056,20.12,93,100,2.82,BR,1698535888
536,port augusta,-32.5,137.7667,21.16,44,50,1.15,AU,1698535888
537,hadithah,34.1397,42.3781,25.29,34,75,3.9,IQ,1698535888
538,totness,5.8833,-56.3167,27.87,83,99,5.27,SR,1698535888
539,sao joao dos patos,-6.495,-43.7022,32.0,23,76,1.66,BR,1698535889
540,cabinda,-5.55,12.2,27.08,89,100,3.09,AO,1698535684
541,tshabong,-26.05,22.45,16.72,39,0,10.0,BW,1698535889
542,san rafael,-34.6177,-68.3301,23.03,16,4,8.28,AR,1698535705
543,minbu,20.1833,94.8833,23.91,87,100,1.53,MM,1698535889
544,brisas de zicatela,15.8369,-97.0419,29.29,51,75,0.0,MX,1698535889
545,santa cruz,-17.8,-63.1667,24.03,88,75,10.8,BO,1698535890
546,richards bay,-28.783,32.0377,16.82,89,100,6.49,ZA,1698535868
547,cooma,-36.2333,149.1333,21.15,22,7,4.4,AU,1698535890
548,brandon,27.9378,-82.2859,28.35,68,0,5.14,US,1698535764
549,menongue,-14.6585,17.691,18.41,81,94,2.29,AO,1698535890
550,gobabis,-22.45,18.9667,16.87,24,0,3.71,NA,1698535890
551,matoury,4.8483,-52.3317,27.98,83,0,3.09,GF,1698535890
552,barma,8.35,-11.3333,22.69,98,100,0.68,SL,1698535891
553,queenstown,-31.8976,26.8753,6.09,82,100,4.1,ZA,1698535891
554,bocas del toro,9.3333,-82.25,25.59,78,75,2.24,PA,1698535891
555,esquel,-42.9,-71.3167,1.82,83,84,10.98,AR,1698535891
556,agat village,13.3886,144.6585,29.64,84,75,3.6,GU,1698535891
557,howrah,22.5892,88.3103,23.0,83,20,0.0,IN,1698535891
558,cafayate,-26.073,-65.9761,24.79,29,3,2.22,AR,1698535837
559,askoy,60.4092,5.226,2.08,69,0,1.03,NO,1698535892
560,poyarkovo,49.6,128.6833,3.7,46,18,3.01,RU,1698535892
561,safotu,-13.4513,-172.4018,27.73,82,93,4.99,WS,1698535892
562,baki,-7.6128,110.7839,27.39,64,58,3.58,ID,1698535892
563,orcopampa,-15.2661,-72.3417,8.59,78,90,3.23,PE,1698535892
564,vidyayevo,69.3191,32.8049,-7.26,93,82,1.11,RU,1698535893
565,mhangura,-16.8939,30.1683,22.11,43,2,1.02,ZW,1698535893
566,tselinnoye,53.0833,85.6667,-5.73,77,16,2.61,RU,1698535893
